{"type":"FeatureCollection","crs":{"type":"name","properties":{"name":"EPSG:4258"}},"features":[{"type":"Feature","id":2,"geometry":{"type":"Point","coordinates":[0.43682737200003885,40.424183411000058]},"properties":{"fid":2,"MUNICIPIO":"Benicarló","CEN_DS_NOM":"Almacén De Frutas I Verduras Belgi","LOC_DS_DIR":"Partida Surrach, 69","LOC_DS_WEB":"http://www.fruitsbelgi.es/","Agroturismo":"-"}},{"type":"Feature","id":3,"geometry":{"type":"Point","coordinates":[0.40618696500007445,40.44798572500008]},"properties":{"fid":3,"MUNICIPIO":"Benicarló","CEN_DS_NOM":"Senar Caldés S. A. T 8088","LOC_DS_DIR":"Partida Carrasca, 41","LOC_DS_WEB":null,"Agroturismo":"-"}},{"type":"Feature","id":4,"geometry":{"type":"Point","coordinates":[0.40490977700005715,40.432505248000041]},"properties":{"fid":4,"MUNICIPIO":"Benicarló","CEN_DS_NOM":"Benifresc","LOC_DS_DIR":"Pol. Ind. \"el Collet\" Parcela 211","LOC_DS_WEB":null,"Agroturismo":null}},{"type":"Feature","id":5,"geometry":{"type":"Point","coordinates":[0.43208830800006126,40.417624487000069]},"properties":{"fid":5,"MUNICIPIO":"Benicarló","CEN_DS_NOM":"Hortalizas Flasan S. A. T 5286","LOC_DS_DIR":"Cristo Del Mar, 179","LOC_DS_WEB":null,"Agroturismo":null}},{"type":"Feature","id":6,"geometry":{"type":"Point","coordinates":[0.4136827690000473,40.417448593000074]},"properties":{"fid":6,"MUNICIPIO":"Benicarló","CEN_DS_NOM":"Frudex","LOC_DS_DIR":"Partida Puig parcela 370","LOC_DS_WEB":"www.frudexsl.com","Agroturismo":"-"}},{"type":"Feature","id":7,"geometry":{"type":"Point","coordinates":[0.40490977700005715,40.432505248000041]},"properties":{"fid":7,"MUNICIPIO":"Benicarló","CEN_DS_NOM":"Cooperativa Agrícola \"San Isidro\" de Benicarló","LOC_DS_DIR":"Polig. Ind. \"el Collet\" Parcelas 301-305","LOC_DS_WEB":"www.benihort.com","Agroturismo":"-"}},{"type":"Feature","id":8,"geometry":{"type":"Point","coordinates":[0.41809456600003614,40.422424763000038]},"properties":{"fid":8,"MUNICIPIO":"Benicarló","CEN_DS_NOM":"Frutas Y Verduras Vamp, S. L.","LOC_DS_DIR":"Polig. Ind. Mercado Abastos, 11","LOC_DS_WEB":null,"Agroturismo":null}},{"type":"Feature","id":9,"geometry":{"type":"Point","coordinates":[0.40490977700005715,40.432505248000041]},"properties":{"fid":9,"MUNICIPIO":"Benicarló","CEN_DS_NOM":"Frutas Hijos De Juan Casado, S. L.","LOC_DS_DIR":"Polig. Ind. \"el Collet\" Parcela 407","LOC_DS_WEB":null,"Agroturismo":null}},{"type":"Feature","id":66,"geometry":{"type":"Point","coordinates":[0.39861674500002664,40.433574949000047]},"properties":{"fid":66,"MUNICIPIO":"Benicarló","CEN_DS_NOM":"Hortalizas Pascual Berga","LOC_DS_DIR":"Pol. Ind. Collet, 100","LOC_DS_WEB":"","Agroturismo":"-"}},{"type":"Feature","id":88,"geometry":{"type":"Point","coordinates":[0.42199495600004866,40.410989703000041]},"properties":{"fid":88,"MUNICIPIO":"Benicarló","CEN_DS_NOM":"Exotic Fruits Azahar","LOC_DS_DIR":"Partida Solaes, 8002","LOC_DS_WEB":"-","Agroturismo":"-"}}]}