{
"type": "FeatureCollection",
"name": "Alojamientos",
"crs": { "type": "name", "properties": { "name": "urn:ogc:def:crs:OGC:1.3:CRS84" } },
"features": [
{ "type": "Feature", "properties": { "Id": "3MA", "Nombre": "HOTEL AR ROCA ESMERALDA", "Dirección": "C/ Ponent, 1", "Localidad": "CALPE", "Clasificac": "3*", "Ofertagas": "Sí", "Restaurant": "Sí", "Desayuno": "Sí", "Buffet": "Sí", "WebInfo": "https://www.rocaesmeralda.com" }, "geometry": { "type": "Point", "coordinates": [ 0.075185975830067, 38.649776390502097 ] } },
{ "type": "Feature", "properties": { "Id": "4MA", "Nombre": "DIAMANTE BEACH", "Dirección": "Avda Juan Carlos I, 48", "Localidad": "CALPE", "Clasificac": "4*", "Ofertagas": "Sí", "Restaurant": "Sí", "Desayuno": "Sí", "Buffet": "Sí", "WebInfo": "https://www.diamantebeach.com" }, "geometry": { "type": "Point", "coordinates": [ 0.073058539394622, 38.650264782529042 ] } },
{ "type": "Feature", "properties": { "Id": "5MA", "Nombre": "HOTEL AR GALETAMAR", "Dirección": "La Caleta, 28A", "Localidad": "CALPE", "Clasificac": "3*", "Ofertagas": "Sí", "Restaurant": "Sí", "Desayuno": "Sí", "Buffet": "Sí", "WebInfo": "https://www.galetamar.com" }, "geometry": { "type": "Point", "coordinates": [ 0.076125526272116, 38.652670586431661 ] } },
{ "type": "Feature", "properties": { "Id": "6MA", "Nombre": "GRAN HOTEL SOL Y MAR", "Dirección": " Benidorm, 3", "Localidad": "CALPE", "Clasificac": "4*", "Ofertagas": "Sí", "Restaurant": "Sí", "Desayuno": "Sí", "Buffet": "Sí", "WebInfo": "https://granhotelsolymar.com" }, "geometry": { "type": "Point", "coordinates": [ 0.049259811698758, 38.642266446979114 ] } },
{ "type": "Feature", "properties": { "Id": "7MA", "Nombre": "IMPERIAL PARK RESORT", "Dirección": "Partida Tosal de la Cometa, 1H", "Localidad": "CALPE", "Clasificac": null, "Ofertagas": "Sí", "Restaurant": "Sí", "Desayuno": "Sí", "Buffet": "Sí", "WebInfo": "https://www.imperialparkresort.com" }, "geometry": { "type": "Point", "coordinates": [ 0.066691604750774, 38.668783409116777 ] } },
{ "type": "Feature", "properties": { "Id": "8MA", "Nombre": "HOTEL PORTO CALPE", "Dirección": "Avenida del Puerto, 7", "Localidad": "CALPE", "Clasificac": "3*", "Ofertagas": "Sí", "Restaurant": "Sí", "Desayuno": "No", "Buffet": "Sí", "WebInfo": "https://portocalpe.com/es/" }, "geometry": { "type": "Point", "coordinates": [ 0.070267077442533, 38.640049830941095 ] } },
{ "type": "Feature", "properties": { "Id": "28MA", "Nombre": "CASA PILAR", "Dirección": "C/ San José, 2", "Localidad": "CASTELL DE CASTELLS", "Clasificac": null, "Ofertagas": "No", "Restaurant": "No", "Desayuno": "Sí", "Buffet": "Sí", "WebInfo": "https://www.casapilar.com/" }, "geometry": { "type": "Point", "coordinates": [ -0.194131834824236, 38.724744700598052 ] } },
{ "type": "Feature", "properties": { "Id": "29MA", "Nombre": "PENSIÓN CASTELLS", "Dirección": "Calle San Vicente, 18", "Localidad": "CASTELL DE CASTELLS", "Clasificac": "2*", "Ofertagas": "No", "Restaurant": "No", "Desayuno": "Sí", "Buffet": "No", "WebInfo": "http://www.mountainholidays-spain.com/" }, "geometry": { "type": "Point", "coordinates": [ -0.192301086857926, 38.725385430299191 ] } },
{ "type": "Feature", "properties": { "Id": "30MA", "Nombre": "HOTEL SERELLA", "Dirección": "Avda. Alcoy, 2", "Localidad": "CASTELL DE CASTELLS", "Clasificac": null, "Ofertagas": "Sí", "Restaurant": "Sí", "Desayuno": "Sí", "Buffet": "Sí", "WebInfo": "https://hotel-serrella.com" }, "geometry": { "type": "Point", "coordinates": [ -0.195216309308305, 38.723482396075454 ] } },
{ "type": "Feature", "properties": { "Id": "33MA", "Nombre": "BOHO SUITES DENIA", "Dirección": "Camino Pou de la Muntanya Nº 8", "Localidad": "DENIA", "Clasificac": null, "Ofertagas": "Sí", "Restaurant": "Sí", "Desayuno": "Sí", "Buffet": "Sí", "WebInfo": "https://www.bohosuitesdenia.com" }, "geometry": { "type": "Point", "coordinates": [ 0.102272252548646, 38.830589302065732 ] } },
{ "type": "Feature", "properties": { "Id": "34MA", "Nombre": "HOTEL COSTA BLANCA", "Dirección": "Calle Pintor Llorens, 3", "Localidad": "DENIA", "Clasificac": "3*", "Ofertagas": "Sí", "Restaurant": "Sí", "Desayuno": "No", "Buffet": "Sí", "WebInfo": "https://www.hotelcostablancadenia.com" }, "geometry": { "type": "Point", "coordinates": [ 0.111732869612024, 38.839949777719696 ] } },
{ "type": "Feature", "properties": { "Id": "35MA", "Nombre": "HOTEL EL RASET", "Dirección": "C/ Bellavista 1", "Localidad": "DENIA", "Clasificac": "3*", "Ofertagas": "Sí", "Restaurant": "Sí", "Desayuno": "Sí", "Buffet": "Sí", "WebInfo": "http://www.hotelelraset.com" }, "geometry": { "type": "Point", "coordinates": [ 0.110347574461821, 38.844373966497741 ] } },
{ "type": "Feature", "properties": { "Id": "37MA", "Nombre": "HOSTAL OASIS", "Dirección": "C/ Boga 5", "Localidad": "DENIA", "Clasificac": "1*", "Ofertagas": "Sí", "Restaurant": "Sí", "Desayuno": "Sí", "Buffet": "No", "WebInfo": "https://www.hoteloasisdenia.com/?lang=es" }, "geometry": { "type": "Point", "coordinates": [ 0.100352697380292, 38.848711895237507 ] } },
{ "type": "Feature", "properties": { "Id": "38MA", "Nombre": "ADSUBIA HOTEL", "Dirección": "Avenida Miguel Hernández, 35", "Localidad": "DENIA", "Clasificac": "2*", "Ofertagas": "No", "Restaurant": "No", "Desayuno": "Sí", "Buffet": "Sí", "WebInfo": "https://www.hoteladsubia.com" }, "geometry": { "type": "Point", "coordinates": [ 0.101920873683822, 38.842913625171803 ] } },
{ "type": "Feature", "properties": { "Id": "39MA", "Nombre": "HOTEL BOUTIQUE CHAMAREL", "Dirección": "Calle Cavallers nº 13", "Localidad": "DENIA", "Clasificac": "3*", "Ofertagas": "Sí", "Restaurant": "Sí", "Desayuno": "Sí", "Buffet": "No", "WebInfo": "https://hotelchamarel.com" }, "geometry": { "type": "Point", "coordinates": [ 0.105373433732043, 38.840191245589715 ] } },
{ "type": "Feature", "properties": { "Id": "40MA", "Nombre": "HOTEL DANIYA DENIA", "Dirección": "C/ Sardina, 11", "Localidad": "DENIA", "Clasificac": "4*", "Ofertagas": "Sí", "Restaurant": "Sí", "Desayuno": "No", "Buffet": "Sí", "WebInfo": "https://www.daniyadenia.com" }, "geometry": { "type": "Point", "coordinates": [ 0.098618102709702, 38.846703970669004 ] } },
{ "type": "Feature", "properties": { "Id": "41MA", "Nombre": "HOTEL FONTANELLA", "Dirección": "C/ Fontanella 18", "Localidad": "DENIA", "Clasificac": "2*", "Ofertagas": "Sí", "Restaurant": "Sí", "Desayuno": "No", "Buffet": "No", "WebInfo": "https://hotel-fontanella-denia.com" }, "geometry": { "type": "Point", "coordinates": [ 0.110478080507417, 38.84287503662437 ] } },
{ "type": "Feature", "properties": { "Id": "42MA", "Nombre": "HOTEL NOU ROMÀ", "Dirección": "C/ Nou, 28", "Localidad": "DENIA", "Clasificac": "3*", "Ofertagas": "Sí", "Restaurant": "Sí", "Desayuno": "Sí", "Buffet": "Sí", "WebInfo": "https://www.hotelnouroma.com" }, "geometry": { "type": "Point", "coordinates": [ 0.103674587732316, 38.84085804381435 ] } },
{ "type": "Feature", "properties": { "Id": "43MA", "Nombre": "HOTEL ROSA DENIA", "Dirección": "Carrer Congre 3", "Localidad": "DENIA", "Clasificac": "3*", "Ofertagas": "Sí", "Restaurant": "Sí", "Desayuno": "Sí", "Buffet": "Sí", "WebInfo": "https://www.hotelrosadenia.com/es/index.html" }, "geometry": { "type": "Point", "coordinates": [ 0.096025342552492, 38.850934836945164 ] } },
{ "type": "Feature", "properties": { "Id": "44MA", "Nombre": "HOTEL VILLAMOR", "Dirección": "Entrador de Llobell, 1. Les Marines", "Localidad": "DENIA", "Clasificac": "2*", "Ofertagas": "Sí", "Restaurant": "Sí", "Desayuno": "Sí", "Buffet": "Sí", "WebInfo": "http://www.hotelvillamor.com" }, "geometry": { "type": "Point", "coordinates": [ 0.078704501927304, 38.854284925483796 ] } },
{ "type": "Feature", "properties": { "Id": "45MA", "Nombre": "HOTELET DE LA RACONÀ", "Dirección": "Camí Ample, 19", "Localidad": "DENIA", "Clasificac": "3*", "Ofertagas": "Sí", "Restaurant": "Sí", "Desayuno": "Sí", "Buffet": "No", "WebInfo": "https://www.elhoteletdelaracona.com" }, "geometry": { "type": "Point", "coordinates": [ 0.140938304812945, 38.831690151535348 ] } },
{ "type": "Feature", "properties": { "Id": "46MA", "Nombre": "LA POSADA DEL MAR", "Dirección": "Puerto de Denia, Plaza Drassanes 2", "Localidad": "DENIA", "Clasificac": "4*", "Ofertagas": "Sí", "Restaurant": "Sí", "Desayuno": "No", "Buffet": "Sí", "WebInfo": "https://www.laposadadelmar.com" }, "geometry": { "type": "Point", "coordinates": [ 0.110398830981732, 38.844228460439879 ] } },
{ "type": "Feature", "properties": { "Id": "47MA", "Nombre": "LA SELLA GOLF RESORT & SPA", "Dirección": "Alqueria de Ferrando s/n, Jesús Pobre", "Localidad": "DENIA", "Clasificac": "5*", "Ofertagas": "Sí", "Restaurant": "Sí", "Desayuno": "Sí", "Buffet": "Sí", "WebInfo": "https://www.lasellagolfresort.com" }, "geometry": { "type": "Point", "coordinates": [ 0.075794074548958, 38.807596891624783 ] } },
{ "type": "Feature", "properties": { "Id": "48MA", "Nombre": "L’ÀNFORA", "Dirección": "Explanada Cervantes, 8", "Localidad": "DENIA", "Clasificac": "1*", "Ofertagas": "Sí", "Restaurant": "Sí", "Desayuno": "No", "Buffet": "No", "WebInfo": "http://www.hostallanfora.com" }, "geometry": { "type": "Point", "coordinates": [ 0.110678780524986, 38.842986800591333 ] } },
{ "type": "Feature", "properties": { "Id": "49MA", "Nombre": "HOTEL LES ROTES", "Dirección": "Carretera les Rotes, 85", "Localidad": "DENIA", "Clasificac": "4*", "Ofertagas": "Sí", "Restaurant": "Sí", "Desayuno": "No", "Buffet": "Sí", "WebInfo": "https://www.hotellesrotesdenia.com" }, "geometry": { "type": "Point", "coordinates": [ 0.149289539135485, 38.82544728680184 ] } },
{ "type": "Feature", "properties": { "Id": "50MA", "Nombre": "LOS ÁNGELES", "Dirección": "Carretera de Las Marinas, Km. 4", "Localidad": "DENIA", "Clasificac": "4*", "Ofertagas": "Sí", "Restaurant": "Sí", "Desayuno": "Sí", "Buffet": "Sí", "WebInfo": "https://www.hotellosangelesdenia.com" }, "geometry": { "type": "Point", "coordinates": [ 0.066051459508974, 38.858780143698446 ] } },
{ "type": "Feature", "properties": { "Id": "51MA", "Nombre": "NOGUERA MAR HOTEL", "Dirección": "Carrer LLac Major", "Localidad": "DENIA", "Clasificac": "3*", "Ofertagas": "Sí", "Restaurant": "Sí", "Desayuno": "No", "Buffet": "Sí", "WebInfo": "https://www.nogueramarhotel.com/es/index.html" }, "geometry": { "type": "Point", "coordinates": [ 0.03773833081224, 38.859781917627927 ] } },
{ "type": "Feature", "properties": { "Id": "52MA", "Nombre": "HOTEL PALAU VERD", "Dirección": "Carretera Les Rotes, 21", "Localidad": "DENIA", "Clasificac": "3*", "Ofertagas": "Sí", "Restaurant": "Sí", "Desayuno": "No", "Buffet": "Sí", "WebInfo": "https://www.hotelpalauverd.com" }, "geometry": { "type": "Point", "coordinates": [ 0.135878040718868, 38.830285742284005 ] } },
{ "type": "Feature", "properties": { "Id": "53MA", "Nombre": "TRES MOLINS HOSTAL", "Dirección": "C/ Pare Pere, 7", "Localidad": "DENIA", "Clasificac": null, "Ofertagas": "Sí", "Restaurant": "Sí", "Desayuno": "No", "Buffet": "No", "WebInfo": "https://hostaltresmolins.com" }, "geometry": { "type": "Point", "coordinates": [ 0.085479038312282, 38.799107221499533 ] } },
{ "type": "Feature", "properties": { "Id": "73MA", "Nombre": "HOSTAL RESTAURANTE LLÀCER", "Dirección": "Avinguda de la Mar, 37.  03709 La Xara", "Localidad": "DENIA", "Clasificac": null, "Ofertagas": "Sí", "Restaurant": "Sí", "Desayuno": "Sí", "Buffet": null, "WebInfo": "http://hostal-llacer.com/index.html" }, "geometry": { "type": "Point", "coordinates": [ 0.061863454827665, 38.828845660652789 ] } },
{ "type": "Feature", "properties": { "Id": "82MA", "Nombre": "LORETO", "Dirección": "C/ Loreto, 12", "Localidad": "DENIA", "Clasificac": "1*", "Ofertagas": "Sí", "Restaurant": "Sí", "Desayuno": "No", "Buffet": "No", "WebInfo": "https://www.hostalloreto.com/es/" }, "geometry": { "type": "Point", "coordinates": [ 0.10411642481339, 38.840422880464587 ] } },
{ "type": "Feature", "properties": { "Id": "94MA", "Nombre": "HOTEL BUENAVISTA", "Dirección": "Pda. Tossalet, 82. La Xara.", "Localidad": "DENIA", "Clasificac": "4*", "Ofertagas": "Sí", "Restaurant": "Sí", "Desayuno": "Sí", "Buffet": null, "WebInfo": "http://www.hotel-buenavista.com" }, "geometry": { "type": "Point", "coordinates": [ 0.063951933553032, 38.839403263817779 ] } },
{ "type": "Feature", "properties": { "Id": "126MA", "Nombre": "BOUTIQUE HOTEL LA CASITA", "Dirección": "Calle Henry Matisse 4", "Localidad": "JÁVEA", "Clasificac": null, "Ofertagas": "No", "Restaurant": "No", "Desayuno": "No", "Buffet": "No", "WebInfo": "https://www.boutique-hotel-lacasita.com/es" }, "geometry": { "type": "Point", "coordinates": [ 0.184793561674155, 38.756423392780277 ] } },
{ "type": "Feature", "properties": { "Id": "127MA", "Nombre": "HOTEL JÁVEA", "Dirección": "Calle Pío X, nº 5", "Localidad": "JÁVEA", "Clasificac": "2*", "Ofertagas": "Sí", "Restaurant": "Sí", "Desayuno": "No", "Buffet": "No", "WebInfo": "https://hotel-javea.com" }, "geometry": { "type": "Point", "coordinates": [ 0.181868442542078, 38.795690909455246 ] } },
{ "type": "Feature", "properties": { "Id": "128MA", "Nombre": "HOTEL TRISKEL", "Dirección": "Calle Sor Maria Gallart 3", "Localidad": "JÁVEA", "Clasificac": null, "Ofertagas": "No", "Restaurant": "Sí", "Desayuno": "No", "Buffet": "No", "WebInfo": "https://hotel-triskel.com" }, "geometry": { "type": "Point", "coordinates": [ 0.163172326832123, 38.789676723397356 ] } },
{ "type": "Feature", "properties": { "Id": "129MA", "Nombre": "NOMAD HOTEL XÀBIA PORT", "Dirección": "Camí Casetes, 8-9", "Localidad": "JÁVEA", "Clasificac": "4*", "Ofertagas": "Sí", "Restaurant": "Sí", "Desayuno": "No", "Buffet": "No", "WebInfo": "https://nomadhotelxabiaport.com-hotel.com" }, "geometry": { "type": "Point", "coordinates": [ 0.181675551972286, 38.793425983767669 ] } },
{ "type": "Feature", "properties": { "Id": "130MA", "Nombre": "PARADOR DE JÁVEA", "Dirección": "Av. del Mediterráneo, 233", "Localidad": "JÁVEA", "Clasificac": "4*", "Ofertagas": "Sí", "Restaurant": "Sí", "Desayuno": "Sí", "Buffet": "Sí", "WebInfo": "https://www.parador.es/es/paradores/parador-de-javea" }, "geometry": { "type": "Point", "coordinates": [ 0.189884882830511, 38.775662085770023 ] } },
{ "type": "Feature", "properties": { "Id": "131MA", "Nombre": "SOL DE JÁVEA HOTEL", "Dirección": "Avenida del Mediterráneo 180", "Localidad": "JÁVEA", "Clasificac": "4*", "Ofertagas": "Sí", "Restaurant": "Sí", "Desayuno": "Sí", "Buffet": "Sí", "WebInfo": "https://hotelsoldejavea.com" }, "geometry": { "type": "Point", "coordinates": [ 0.186698482833611, 38.779568779162602 ] } },
{ "type": "Feature", "properties": { "Id": "133MA", "Nombre": "CASA RURAL CA LLUÍS", "Dirección": "C/ Rei en Jaume, 3", "Localidad": "LA VALL DE LAGUAR", "Clasificac": null, "Ofertagas": "Sí", "Restaurant": "No", "Desayuno": "No", "Buffet": "No", "WebInfo": "https://www.calluis.com/" }, "geometry": { "type": "Point", "coordinates": [ -0.101866127837704, 38.780322390757597 ] } },
{ "type": "Feature", "properties": { "Id": "134MA", "Nombre": "CAMPING LA VALL DE LAGUAR", "Dirección": "C/ Sant Antoni, 24", "Localidad": "LA VALL DE LAGUAR", "Clasificac": null, "Ofertagas": "Sí", "Restaurant": "Sí", "Desayuno": "No", "Buffet": "No", "WebInfo": "http://www.campinglaguar.com/" }, "geometry": { "type": "Point", "coordinates": [ -0.105711271013266, 38.776886156382481 ] } },
{ "type": "Feature", "properties": { "Id": "135MA", "Nombre": "CASA RURAL TERRANOVA", "Dirección": "Pda. Terranova, 6", "Localidad": "LA VALL DE LAGUAR", "Clasificac": null, "Ofertagas": "No", "Restaurant": "No", "Desayuno": "No", "Buffet": "No", "WebInfo": "http://www.casaruralterranova.com/" }, "geometry": { "type": "Point", "coordinates": [ -0.108261587958821, 38.778426850699155 ] } },
{ "type": "Feature", "properties": { "Id": "136MA", "Nombre": "HOTEL RTE. ALAHUAR", "Dirección": "Pda. El Tossal s/n", "Localidad": "LA VALL DE LAGUAR", "Clasificac": "4*", "Ofertagas": "Sí", "Restaurant": "Sí", "Desayuno": "Sí", "Buffet": "Sí", "WebInfo": "https://www.hotelalahuar.es/" }, "geometry": { "type": "Point", "coordinates": [ -0.129443114634801, 38.775742187594439 ] } },
{ "type": "Feature", "properties": { "Id": "154MA", "Nombre": "BELLAVISTA RESORT", "Dirección": "C/Las Rosas s/n", "Localidad": "PEGO", "Clasificac": null, "Ofertagas": "Sí", "Restaurant": "Sí", "Desayuno": "No", "Buffet": "No", "WebInfo": "https://www.bellavistaresidential.com/es/index.html" }, "geometry": { "type": "Point", "coordinates": [ -0.059720300679668, 38.842665647552884 ] } },
{ "type": "Feature", "properties": { "Id": "155MA", "Nombre": "CASTELL DE LA SOLANA", "Dirección": "Partida la Coma, 326", "Localidad": "ALCALALÍ", "Clasificac": null, "Ofertagas": "Sí", "Restaurant": "No", "Desayuno": "Sí", "Buffet": null, "WebInfo": "https://www.castelldelasolana.es/?lang=es" }, "geometry": { "type": "Point", "coordinates": [ -0.032732087410429, 38.758288543058413 ] } },
{ "type": "Feature", "properties": { "Id": "163MA", "Nombre": "HOTEL LA FONT D´ALCALÀ", "Dirección": "Pl. Bisbe Vilaplana, 12", "Localidad": "LA VALL D’ALCALÀ", "Clasificac": null, "Ofertagas": "Sí", "Restaurant": "Sí", "Desayuno": "Sí", "Buffet": "Sí", "WebInfo": "http://fontdalcala.com/" }, "geometry": { "type": "Point", "coordinates": [ -0.252367810727348, 38.794150376021584 ] } },
{ "type": "Feature", "properties": { "Id": "165MA", "Nombre": "LES VICENTES", "Dirección": "Calle Poeta Llorente n 4", "Localidad": "LA VALL D’EBO", "Clasificac": null, "Ofertagas": "Sí", "Restaurant": "No", "Desayuno": "No", "Buffet": "No", "WebInfo": "http://lesvicentes.com/" }, "geometry": { "type": "Point", "coordinates": [ -0.159527435356302, 38.80531654869457 ] } },
{ "type": "Feature", "properties": { "Id": "170MA", "Nombre": "ANTIQUARY", "Dirección": "Av.de Valencia,1", "Localidad": "POBLE NOU DE BENITATXELL", "Clasificac": null, "Ofertagas": "Sí", "Restaurant": "Sí", "Desayuno": "No", "Buffet": "No", "WebInfo": "https://casaantiquary.com/" }, "geometry": { "type": "Point", "coordinates": [ 0.143413160274883, 38.732401155070377 ] } },
{ "type": "Feature", "properties": { "Id": "174MA", "Nombre": "LA SORT", "Dirección": "Avenida de la Paz, 24 Moraira", "Localidad": "TEULADA MORAIRA", "Clasificac": "3*", "Ofertagas": "Sí", "Restaurant": "Sí", "Desayuno": "Sí", "Buffet": null, "WebInfo": "https://www.lasort.com" }, "geometry": { "type": "Point", "coordinates": [ 0.132233773820556, 38.68738700240727 ] } },
{ "type": "Feature", "properties": { "Id": "175MA", "Nombre": "SWISS HOTEL MORAIRA", "Dirección": "C / Haya, 175 - 03724 Moraira", "Localidad": "POBLE NOU DE BENITATXELL", "Clasificac": "4*", "Ofertagas": "Sí", "Restaurant": "Sí", "Desayuno": "Sí", "Buffet": "Sí", "WebInfo": "https://www.swisshotelmoraira.com/es/" }, "geometry": { "type": "Point", "coordinates": [ 0.110186269430851, 38.692921892125071 ] } },
{ "type": "Feature", "properties": { "Id": "1264", "Nombre": "CAMPING EL NARANJAL", "Dirección": "Camí dels Morers Nº15", "Localidad": "JÁVEA", "Clasificac": "3*", "Ofertagas": "Sí", "Restaurant": "Sí", "Desayuno": "No", "Buffet": "No", "WebInfo": "https://www.campingelnaranjal.com/" }, "geometry": { "type": "Point", "coordinates": [ 0.182141750971828, 38.770531238351069 ] } },
{ "type": "Feature", "properties": { "Id": "1282", "Nombre": "REFUGIO MARNES CASAS RURALES", "Dirección": " Partida Marnes 85, 03729 Lliber (Alicante)", "Localidad": "LLIBER", "Clasificac": "2*", "Ofertagas": "Sí", "Restaurant": "No", "Desayuno": null, "Buffet": "No", "WebInfo": "https://www.refugiomarnes.com/es/" }, "geometry": { "type": "Point", "coordinates": [ -0.026159139353435, 38.682120349176024 ] } },
{ "type": "Feature", "properties": { "Id": "1287", "Nombre": "CASA LES OLIVES", "Dirección": "Carrer Llarg 4", "Localidad": "BENIGEMBLA", "Clasificac": "2*", "Ofertagas": "Sí", "Restaurant": "No", "Desayuno": "Sí", "Buffet": "No", "WebInfo": "https://www.casalesolives.com/es-es" }, "geometry": { "type": "Point", "coordinates": [ -0.109896080909303, 38.755908228177802 ] } },
{ "type": "Feature", "properties": { "Id": "1288", "Nombre": "CASA RURAL EL CASTELLOT", "Dirección": "Sant Marc 12 - Alpatró", "Localidad": "LA VALL DE GALLINERA", "Clasificac": "2*", "Ofertagas": "Sí", "Restaurant": "No", "Desayuno": "Sí", "Buffet": "No", "WebInfo": "https://casaruralvalldegallinera.es/" }, "geometry": { "type": "Point", "coordinates": [ -0.261560639265719, 38.821944186733326 ] } },
{ "type": "Feature", "properties": { "Id": "1289", "Nombre": "NOGUERA CASA RURAL", "Dirección": "Sant Joan Baptista 8", "Localidad": "XALÓ", "Clasificac": "2*", "Ofertagas": "No", "Restaurant": "No", "Desayuno": "No", "Buffet": "No", "WebInfo": "http://www.nogueracasarural.com/" }, "geometry": { "type": "Point", "coordinates": [ -0.011683360932512, 38.74019314913896 ] } },
{ "type": "Feature", "properties": { "Id": "1292", "Nombre": "SECRETS CASA RURAL HOUSE", "Dirección": "Camino de la Plana del Tio Adriano nº2", "Localidad": "JÁVEA", "Clasificac": "2*", "Ofertagas": "No", "Restaurant": "No", "Desayuno": "No", "Buffet": "Sí", "WebInfo": "http://www.secretsruralhouse.com/" }, "geometry": { "type": "Point", "coordinates": [ 0.16326317452136, 38.804998052707639 ] } },
{ "type": "Feature", "properties": { "Id": "1295", "Nombre": "MARDENIT", "Dirección": "c/ Pintor Ruano, 11", "Localidad": "ORBA", "Clasificac": null, "Ofertagas": "Sí", "Restaurant": "Sí", "Desayuno": "No", "Buffet": "Sí", "WebInfo": "https://www.mardenit.com/es/" }, "geometry": { "type": "Point", "coordinates": [ -0.064556007751824, 38.780498517641249 ] } },
{ "type": "Feature", "properties": { "Id": "1306", "Nombre": "THE COOKBOOK GASTRO BOUTIQUE HOTEL", "Dirección": " Urbanización Marisol Park, 1-A, ", "Localidad": "CALPE", "Clasificac": "4*", "Ofertagas": "Sí", "Restaurant": "Sí", "Desayuno": "Sí", "Buffet": "Sí", "WebInfo": "https://thecookbookhotel.com/" }, "geometry": { "type": "Point", "coordinates": [ 0.060710549369854, 38.647615826269089 ] } },
{ "type": "Feature", "properties": { "Id": "1315", "Nombre": "HOTEL RAMIS", "Dirección": "Mariano Benlliure 6", "Localidad": "ONDARA", "Clasificac": "1*", "Ofertagas": "Sí", "Restaurant": "Sí", "Desayuno": "No", "Buffet": "Sí", "WebInfo": "http://www.hotelramis.com/" }, "geometry": { "type": "Point", "coordinates": [ 0.014393822411208, 38.828405659873305 ] } },
{ "type": "Feature", "properties": { "Id": "28AM", "Nombre": "CAMPING LA VALLTORTA", "Dirección": "Ptda. Pla De L'Om, s/n", "Localidad": "TIRIG", "Clasificac": null, "Ofertagas": "Sí", "Restaurant": "Sí", "Desayuno": "No", "Buffet": "No", "WebInfo": "http://www.tirig.es/" }, "geometry": { "type": "Point", "coordinates": [ 0.066083740874387, 40.405074944075359 ] } },
{ "type": "Feature", "properties": { "Id": "30AM", "Nombre": "HOTEL NOVELLA", "Dirección": "Carretera Balneario-Culla, 1", "Localidad": "BENASSAL", "Clasificac": "3*", "Ofertagas": "Sí", "Restaurant": "Sí", "Desayuno": "Sí", "Buffet": "No", "WebInfo": "http://www.hoteldemontananovella.com/" }, "geometry": { "type": "Point", "coordinates": [ -0.142579313341991, 40.367324229847604 ] } },
{ "type": "Feature", "properties": { "Id": "32AM", "Nombre": "HOTEL RESTAURANTE LA CASTELLANA", "Dirección": "Av. Dr. Puigvert, S/N", "Localidad": "BENASSAL", "Clasificac": "2*", "Ofertagas": "Sí", "Restaurant": "Sí", "Desayuno": "Sí", "Buffet": "Sí", "WebInfo": "https://www.hotel-lacastellana.com/" }, "geometry": { "type": "Point", "coordinates": [ -0.138159517941551, 40.367413018443557 ] } },
{ "type": "Feature", "properties": { "Id": "33AM", "Nombre": "MAS DE TENESA", "Dirección": "Ctra. Villafranca", "Localidad": "BENASSAL", "Clasificac": null, "Ofertagas": "No", "Restaurant": "No", "Desayuno": "No", "Buffet": "No", "WebInfo": "https://www.masdetenesa.com/en-US/homepage" }, "geometry": { "type": "Point", "coordinates": [ -0.154527151233322, 40.380589724872209 ] } },
{ "type": "Feature", "properties": { "Id": "34AM", "Nombre": "HOTEL LA PIQUETA", "Dirección": "Avda. Vilafranca Nº 9", "Localidad": "BENASSAL", "Clasificac": "2*", "Ofertagas": "Sí", "Restaurant": "Sí", "Desayuno": "No", "Buffet": null, "WebInfo": "https://www.hotellapiqueta.com/" }, "geometry": { "type": "Point", "coordinates": [ -0.143134771339179, 40.381209358060545 ] } },
{ "type": "Feature", "properties": { "Id": "35AM", "Nombre": "ALDEA ROQUETA TURISMO RURAL", "Dirección": "Mas en roqueta s/n", "Localidad": "CULLA", "Clasificac": null, "Ofertagas": "Sí", "Restaurant": "Sí", "Desayuno": "Sí", "Buffet": "Sí", "WebInfo": "https://www.aldearoqueta.com/" }, "geometry": { "type": "Point", "coordinates": [ -0.076453575414819, 40.280181199125082 ] } },
{ "type": "Feature", "properties": { "Id": "36AM", "Nombre": "MASIA PINELLA", "Dirección": "Partida Rivet", "Localidad": "BENASSAL", "Clasificac": null, "Ofertagas": "No", "Restaurant": "No", "Desayuno": "No", "Buffet": "No", "WebInfo": "http://www.masiapinella.com/" }, "geometry": { "type": "Point", "coordinates": [ -0.152949902154099, 40.364067306163015 ] } },
{ "type": "Feature", "properties": { "Id": "37AM", "Nombre": "APARTAMENTOS SAN CRISTOBAL", "Dirección": "Font d'en Segures, 33", "Localidad": "BENASSAL", "Clasificac": null, "Ofertagas": "No", "Restaurant": "No", "Desayuno": "No", "Buffet": "No", "WebInfo": "https://apartamentossancristobal.000webhostapp.com/" }, "geometry": { "type": "Point", "coordinates": [ -0.136189078266228, 40.366391403376873 ] } },
{ "type": "Feature", "properties": { "Id": "39AM", "Nombre": "CASA RURAL LA COVARXELLA", "Dirección": "El Molinell", "Localidad": "CULLA", "Clasificac": null, "Ofertagas": "No", "Restaurant": "No", "Desayuno": "No", "Buffet": "No", "WebInfo": "https://www.lacovarxella.com/contacto/" }, "geometry": { "type": "Point", "coordinates": [ -0.123824095047358, 40.341755322272974 ] } },
{ "type": "Feature", "properties": { "Id": "40AM", "Nombre": "HOTEL LOS ARCOS", "Dirección": "Carrer Ares, 13", "Localidad": "VILLAFRANCA DEL CID", "Clasificac": "2*", "Ofertagas": "Sí", "Restaurant": "Sí", "Desayuno": null, "Buffet": "No", "WebInfo": "https://hotel-losarcos.es/" }, "geometry": { "type": "Point", "coordinates": [ -0.254543690430587, 40.430595963620448 ] } },
{ "type": "Feature", "properties": { "Id": "41AM", "Nombre": "HOTEL ROIG", "Dirección": "Balneario Fuente en Segures s/n", "Localidad": "BENASSAL", "Clasificac": "2*", "Ofertagas": "Sí", "Restaurant": "Sí", "Desayuno": null, "Buffet": null, "WebInfo": "https://www.hotelroig.com/" }, "geometry": { "type": "Point", "coordinates": [ -0.137993637829621, 40.367715161814651 ] } },
{ "type": "Feature", "properties": { "Id": "42AM", "Nombre": "EL JARDÍN MEDITERRÁNEO-MOLI COLOMER", "Dirección": "Masía Colomer, 1", "Localidad": "LA TORRE D'EN BESORA", "Clasificac": null, "Ofertagas": "Sí", "Restaurant": "No", "Desayuno": "No", "Buffet": "No", "WebInfo": "https://www.molicolomer.com/" }, "geometry": { "type": "Point", "coordinates": [ -0.078611783180913, 40.335703281847906 ] } },
{ "type": "Feature", "properties": { "Id": "43AM", "Nombre": "CASA RURAL MAS DE LA SEGARA", "Dirección": "Lugar Masía Segarra, 0 S/N", "Localidad": "VILAR DE CANES", "Clasificac": null, "Ofertagas": "Sí", "Restaurant": "No", "Desayuno": "No", "Buffet": "No", "WebInfo": "https://www.masdelasegarra.com/" }, "geometry": { "type": "Point", "coordinates": [ -0.044761234026805, 40.366125016973172 ] } },
{ "type": "Feature", "properties": { "Id": "44AM", "Nombre": "CA LES BESONES - LA CASISTA DE ADRI", "Dirección": "Carrer de dalt, 0", "Localidad": "VILAR DE CANES", "Clasificac": null, "Ofertagas": "No", "Restaurant": "No", "Desayuno": "No", "Buffet": "No", "WebInfo": "http://calesbessones.es/" }, "geometry": { "type": "Point", "coordinates": [ -0.066171215810549, 40.357402066998461 ] } },
{ "type": "Feature", "properties": { "Id": "45AM", "Nombre": "ALDEA ECORURAL", "Dirección": "Mas del Señor, 7-13 Entrada por, CV-165, Km 40, 5,", "Localidad": "VILAR DE CANES", "Clasificac": null, "Ofertagas": "Sí", "Restaurant": "No", "Desayuno": "No", "Buffet": "No", "WebInfo": "https://www.aldeaecorural.com/" }, "geometry": { "type": "Point", "coordinates": [ -0.072991144745151, 40.341559965481586 ] } },
{ "type": "Feature", "properties": { "Id": "46AM", "Nombre": "HOTEL D'ARES", "Dirección": "Plaza Mayor, 4", "Localidad": "ARES DEL MAESTRAT", "Clasificac": "2*", "Ofertagas": "Sí", "Restaurant": "Sí", "Desayuno": "Sí", "Buffet": "No", "WebInfo": "http://aresdelmaestrat.com/hotel-dares/" }, "geometry": { "type": "Point", "coordinates": [ -0.132085544553735, 40.456660290784562 ] } },
{ "type": "Feature", "properties": { "Id": "47AM", "Nombre": "CASA BANYS L'AVELLÀ", "Dirección": "Carrer 1 l'Avella, 6", "Localidad": "CATÍ", "Clasificac": "2*", "Ofertagas": "Sí", "Restaurant": "Sí", "Desayuno": "Sí", "Buffet": "Sí", "WebInfo": "http://www.banyslavella.com/" }, "geometry": { "type": "Point", "coordinates": [ 0.000923303721682, 40.501378809220029 ] } },
{ "type": "Feature", "properties": { "Id": "54AM", "Nombre": "HOTEL LA CASA DEL MERCAT", "Dirección": "Carrer Sant Miquel, 16", "Localidad": "VILLAFRANCA DEL CID", "Clasificac": null, "Ofertagas": "No", "Restaurant": "No", "Desayuno": "No", "Buffet": "No", "WebInfo": "https://www.lacasadelmercat.com/" }, "geometry": { "type": "Point", "coordinates": [ -0.256917401806552, 40.426427845013158 ] } },
{ "type": "Feature", "properties": { "Id": "56AM", "Nombre": "CAMPING EL LLOSAR", "Dirección": "Avinguda Llosar, 0", "Localidad": "VILLAFRANCA DEL CID", "Clasificac": null, "Ofertagas": "Sí", "Restaurant": "Sí", "Desayuno": "No", "Buffet": "No", "WebInfo": "https://campingllosar.com/" }, "geometry": { "type": "Point", "coordinates": [ -0.268675154155628, 40.439659184546059 ] } },
{ "type": "Feature", "properties": { "Id": "57AM", "Nombre": "ALBERGUE LA PARRETA", "Dirección": "Carretra CV-15, Km 3", "Localidad": "VILLAFRANCA DEL CID", "Clasificac": null, "Ofertagas": "Sí", "Restaurant": "Sí", "Desayuno": "No", "Buffet": "No", "WebInfo": "https://www.laparreta.com/" }, "geometry": { "type": "Point", "coordinates": [ -0.284531871480451, 40.443744095727702 ] } },
{ "type": "Feature", "properties": { "Id": "58AM", "Nombre": "CASA RURAL MERCEDES", "Dirección": "Carrer Cementeri Vell, 16", "Localidad": "VILLAFRANCA DEL CID", "Clasificac": null, "Ofertagas": "No", "Restaurant": "No", "Desayuno": "No", "Buffet": "No", "WebInfo": "https://casa-rural-mercedes.business.site/" }, "geometry": { "type": "Point", "coordinates": [ -0.254823284924941, 40.428359747469919 ] } },
{ "type": "Feature", "properties": { "Id": "95AM", "Nombre": "HOTEL LOS PINOS", "Dirección": "Balneario Fuente En Segures", "Localidad": "BENASSAL", "Clasificac": "2*", "Ofertagas": "Sí", "Restaurant": "Sí", "Desayuno": "Sí", "Buffet": null, "WebInfo": "http://www.lospinosbenassal.com/" }, "geometry": { "type": "Point", "coordinates": [ -0.137653964743855, 40.367949948388535 ] } },
{ "type": "Feature", "properties": { "Id": "97AM", "Nombre": "CASA RURAL COMPLEJO RURAL LA GLORIETA", "Dirección": "Carrer 3 l'Avella, 2", "Localidad": "CATÍ", "Clasificac": null, "Ofertagas": "No", "Restaurant": "No", "Desayuno": "No", "Buffet": "No", "WebInfo": "http://www.casalaglorieta.com/" }, "geometry": { "type": "Point", "coordinates": [ -0.001551059355744, 40.50039827235419 ] } },
{ "type": "Feature", "properties": { "Id": "1327", "Nombre": "CASA RURAL MASÍA TORRE AMADOR", "Dirección": "Lugar Masía Torre Amador, 0 S/N", "Localidad": "CULLA", "Clasificac": null, "Ofertagas": "No", "Restaurant": "No", "Desayuno": "No", "Buffet": "No", "WebInfo": null }, "geometry": { "type": "Point", "coordinates": [ -0.13435630557322, 40.327100638143484 ] } },
{ "type": "Feature", "properties": { "Id": "2BM", "Nombre": "Rh Vinaròs Aura Hotel Boutique", "Dirección": "C/ Del Mar, 2 12500", "Localidad": "Vinaròs", "Clasificac": "4*", "Ofertagas": "Sí", "Restaurant": "Sí", "Desayuno": "Sí", "Buffet": "Sí", "WebInfo": "https://www.hotelrhvinarosaura.com/servicios" }, "geometry": { "type": "Point", "coordinates": [ 0.467073613301014, 40.464940071307105 ] } },
{ "type": "Feature", "properties": { "Id": "3BM", "Nombre": "Rh Vinaròs Playa Family Hotel", "Dirección": "C/ Febrer de la Torre, 2", "Localidad": "Vinaròs", "Clasificac": "4*", "Ofertagas": "Sí", "Restaurant": "Sí", "Desayuno": "Sí", "Buffet": "Sí", "WebInfo": "https://www.hotelrhvinarosplaya.com/" }, "geometry": { "type": "Point", "coordinates": [ 0.468098472718202, 40.465377624598581 ] } },
{ "type": "Feature", "properties": { "Id": "4BM", "Nombre": "Hotel Crystal Park", "Dirección": "Carretera Nacional 340a km 1048,2, 12500", "Localidad": "Vinaròs", "Clasificac": "3*", "Ofertagas": "No", "Restaurant": "Sí", "Desayuno": "Sí", "Buffet": "No", "WebInfo": "ttp://hotelcrystalpark.com/" }, "geometry": { "type": "Point", "coordinates": [ 0.449664741912902, 40.447367529203611 ] } },
{ "type": "Feature", "properties": { "Id": "5BM", "Nombre": "Hotel Residencia Nou Casablanca", "Dirección": "Santa Ana, 30", "Localidad": "Vinaròs", "Clasificac": "2*", "Ofertagas": "No", "Restaurant": "No", "Desayuno": "Sí", "Buffet": "Sí", "WebInfo": "https://www.noucasablancavinaros.com/es-es" }, "geometry": { "type": "Point", "coordinates": [ 0.475907980137928, 40.471834544265263 ] } },
{ "type": "Feature", "properties": { "Id": "6BM", "Nombre": "Hotel-Res-Cafetería Duc de Vendôme", "Dirección": "Ctra. Valencia-Barcelona, N-340, 1053, 12500", "Localidad": "Vinaròs", "Clasificac": "2*", "Ofertagas": "Sí", "Restaurant": "Sí", "Desayuno": "No", "Buffet": "No", "WebInfo": "https://ducdevendome.com/" }, "geometry": { "type": "Point", "coordinates": [ 0.478238349500909, 40.485895432979468 ] } },
{ "type": "Feature", "properties": { "Id": "7BM", "Nombre": "Hotel Teruel", "Dirección": "Av Madrid, 11, 12500", "Localidad": "Vinaròs", "Clasificac": "2*", "Ofertagas": "Sí", "Restaurant": "Sí", "Desayuno": "No", "Buffet": "No", "WebInfo": "https://hotelteruel.es/es/" }, "geometry": { "type": "Point", "coordinates": [ 0.468920013854612, 40.468964528288957 ] } },
{ "type": "Feature", "properties": { "Id": "8BM", "Nombre": "Vinalux Resort - Beauty&Yoga Retreat", "Dirección": "C/ Remei 11, 12500", "Localidad": "Vinaròs", "Clasificac": null, "Ofertagas": "Sí", "Restaurant": "No", "Desayuno": "No", "Buffet": "No", "WebInfo": "https://vinaluxresort.com/" }, "geometry": { "type": "Point", "coordinates": [ 0.476544626931097, 40.471374058575144 ] } },
{ "type": "Feature", "properties": { "Id": "15BM", "Nombre": "Hotel Restaurante Roca", "Dirección": "arretera Nacional 340 a (antigua) Km. 1049, 12500", "Localidad": "Vinaròs", "Clasificac": "2*", "Ofertagas": "Sí", "Restaurant": "Sí", "Desayuno": "Sí", "Buffet": "Sí", "WebInfo": "https://www.hotelroca.com/" }, "geometry": { "type": "Point", "coordinates": [ 0.457986451112435, 40.456989702469976 ] } },
{ "type": "Feature", "properties": { "Id": "22BM", "Nombre": "Camping Vinaròs", "Dirección": "Ctra N 340, Km. 1054, 12500", "Localidad": "Vinaròs", "Clasificac": null, "Ofertagas": "Sí", "Restaurant": "Sí", "Desayuno": "No", "Buffet": "No", "WebInfo": "http://www.campingvinaros.com/" }, "geometry": { "type": "Point", "coordinates": [ 0.4829098978512, 40.49296870831634 ] } },
{ "type": "Feature", "properties": { "Id": "23BM", "Nombre": "Camping Alegría del Mar", "Dirección": "Ctra Nacional 340A, (km 1046), 12580", "Localidad": "Benicarló", "Clasificac": "3*", "Ofertagas": "Sí", "Restaurant": "Sí", "Desayuno": "No", "Buffet": "No", "WebInfo": "https://www.campingalegria.com/" }, "geometry": { "type": "Point", "coordinates": [ 0.437868880569103, 40.425968592713488 ] } },
{ "type": "Feature", "properties": { "Id": "34BM", "Nombre": "Apartamentos Els Romers", "Dirección": "Avinguda del Papa Luna, 12598", "Localidad": "Peñiscola", "Clasificac": null, "Ofertagas": "No", "Restaurant": "No", "Desayuno": "No", "Buffet": "No", "WebInfo": "https://www.elsromers.com/" }, "geometry": { "type": "Point", "coordinates": [ 0.418068667076403, 40.403157279852259 ] } },
{ "type": "Feature", "properties": { "Id": "36BM", "Nombre": "Hotel El Pinche de Oro", "Dirección": "Paseo Marítimo, 46, 12580", "Localidad": "Benicarló", "Clasificac": "2*", "Ofertagas": "Sí", "Restaurant": "Sí", "Desayuno": "Sí", "Buffet": "No", "WebInfo": "http://hotelelpinchedeoro.com/" }, "geometry": { "type": "Point", "coordinates": [ 0.425681444187626, 40.414802385637849 ] } },
{ "type": "Feature", "properties": { "Id": "37BM", "Nombre": "Hotel Sol", "Dirección": "https://hotel-sol.com/", "Localidad": "Benicarló", "Clasificac": "1*", "Ofertagas": "No", "Restaurant": "Sí", "Desayuno": "No", "Buffet": "No", "WebInfo": "https://hotel-sol.com/" }, "geometry": { "type": "Point", "coordinates": [ 0.423400247717384, 40.424416989380461 ] } },
{ "type": "Feature", "properties": { "Id": "38BM", "Nombre": "Pensión Belmonte II", "Dirección": "Calle Pío XII, 3, 12580", "Localidad": "Benicarló", "Clasificac": "1*", "Ofertagas": "No", "Restaurant": "No", "Desayuno": "No", "Buffet": "No", "WebInfo": "https://www.hostalbelmonteii.es/" }, "geometry": { "type": "Point", "coordinates": [ 0.426408332631507, 40.417978151118511 ] } },
{ "type": "Feature", "properties": { "Id": "39BM", "Nombre": "Casa Rural Mas del Rey", "Dirección": "CV-138, 12580", "Localidad": "Benicarló", "Clasificac": null, "Ofertagas": "Sí", "Restaurant": "No", "Desayuno": "Sí", "Buffet": "No", "WebInfo": "https://www.masdelrey.com/es/" }, "geometry": { "type": "Point", "coordinates": [ 0.381820595097033, 40.471836964520875 ] } },
{ "type": "Feature", "properties": { "Id": "53BM", "Nombre": "Gran Hotel Peñiscola", "Dirección": "Avda Papa Luna 132-136, 12598", "Localidad": "Peñíscola", "Clasificac": "4*", "Ofertagas": "Sí", "Restaurant": "Sí", "Desayuno": "Sí", "Buffet": "Sí", "WebInfo": "https://www.granhotelpeniscola.com/" }, "geometry": { "type": "Point", "coordinates": [ 0.412974901879891, 40.392121720406237 ] } },
{ "type": "Feature", "properties": { "Id": "54BM", "Nombre": "Hotel Peñiscola Palace", "Dirección": "Avenida Papa Luna nº34 12598", "Localidad": "Peñíscola", "Clasificac": "4*", "Ofertagas": "Sí", "Restaurant": "Sí", "Desayuno": "Sí", "Buffet": "Sí", "WebInfo": "https://www.peniscolapalace.com/" }, "geometry": { "type": "Point", "coordinates": [ 0.405647624431261, 40.373658258934725 ] } },
{ "type": "Feature", "properties": { "Id": "55BM", "Nombre": "Hotel Boutique La Mar", "Dirección": "Calle Porteta, 16, 12598", "Localidad": "Peñíscola", "Clasificac": "3*", "Ofertagas": "Sí", "Restaurant": "Sí", "Desayuno": "No", "Buffet": "Sí", "WebInfo": "https://www.hotelboutiquelamar.com/" }, "geometry": { "type": "Point", "coordinates": [ 0.406427902646762, 40.359467801541932 ] } },
{ "type": "Feature", "properties": { "Id": "56BM", "Nombre": "Hotel Hey", "Dirección": "Av. Valencia, 114, 12598", "Localidad": "Peñíscola", "Clasificac": "3*", "Ofertagas": "Sí", "Restaurant": "Sí", "Desayuno": "No", "Buffet": "No", "WebInfo": "https://www.hotelhey.com/" }, "geometry": { "type": "Point", "coordinates": [ 0.407056238996212, 40.378939640100235 ] } },
{ "type": "Feature", "properties": { "Id": "57BM", "Nombre": "Hoteles Prado", "Dirección": "Av. Papa Luna, 3, 12598", "Localidad": "Peñíscola", "Clasificac": "3*", "Ofertagas": "Sí", "Restaurant": "Sí", "Desayuno": "No", "Buffet": "Sí", "WebInfo": "https://www.hotelesprado.com/" }, "geometry": { "type": "Point", "coordinates": [ 0.401551855202613, 40.362241423742404 ] } },
{ "type": "Feature", "properties": { "Id": "58BM", "Nombre": "Hotel Felipe II", "Dirección": "Avda. Papa Luna, 32, 12598", "Localidad": "Peñíscola", "Clasificac": "2*", "Ofertagas": "Sí", "Restaurant": "Sí", "Desayuno": "No", "Buffet": "Sí", "WebInfo": "https://www.felipesegundohotel.com/" }, "geometry": { "type": "Point", "coordinates": [ 0.405412825355415, 40.37297167012867 ] } },
{ "type": "Feature", "properties": { "Id": "59BM", "Nombre": "Hotel Mare Nostrum", "Dirección": "Calle Molino, 4, 12598", "Localidad": "Peñíscola", "Clasificac": "1*", "Ofertagas": "No", "Restaurant": "Sí", "Desayuno": null, "Buffet": "No", "WebInfo": "https://hotelmarenostrum.net/" }, "geometry": { "type": "Point", "coordinates": [ 0.404421635765554, 40.359373830440809 ] } },
{ "type": "Feature", "properties": { "Id": "60BM", "Nombre": "Hotel Bodegón", "Dirección": "Calle Avenida Papa Luna, 77, 12598", "Localidad": "Peñíscola", "Clasificac": "1*", "Ofertagas": "Sí", "Restaurant": "Sí", "Desayuno": "No", "Buffet": "Sí", "WebInfo": "http://www.hotelbodegon.com/" }, "geometry": { "type": "Point", "coordinates": [ 0.40804025690263, 40.380702930183176 ] } },
{ "type": "Feature", "properties": { "Id": "61BM", "Nombre": "Agora Spa & Resort", "Dirección": "Calle Huerto, 8, 12598", "Localidad": "Peñíscola", "Clasificac": "4*", "Ofertagas": "No", "Restaurant": "Sí", "Desayuno": "No", "Buffet": "Sí", "WebInfo": "https://www.agorahoteles.com/es/index.html" }, "geometry": { "type": "Point", "coordinates": [ 0.397756265937045, 40.358642379269789 ] } },
{ "type": "Feature", "properties": { "Id": "62BM", "Nombre": "Pensión Luz de Azahar", "Dirección": "Cami Santa Magdalena 24, 12598", "Localidad": "Peñíscola", "Clasificac": null, "Ofertagas": "No", "Restaurant": "No", "Desayuno": "Sí", "Buffet": "No", "WebInfo": "http://luzdeazahar.com/" }, "geometry": { "type": "Point", "coordinates": [ 0.381757665038347, 40.38338481050954 ] } },
{ "type": "Feature", "properties": { "Id": "64BM", "Nombre": "Club de Golf Panorámica Apartamentos", "Dirección": "Urb. Panorámica s/n", "Localidad": "Sant Jordi", "Clasificac": null, "Ofertagas": "Sí", "Restaurant": "Sí", "Desayuno": "No", "Buffet": "No", "WebInfo": "https://www.panoramicaclubdegolf.com/" }, "geometry": { "type": "Point", "coordinates": [ 0.370104222721707, 40.552013614638383 ] } },
{ "type": "Feature", "properties": { "Id": "65BM", "Nombre": "Hostal Temático El Peñón", "Dirección": "C/ Santos Mártires 3-22 12598", "Localidad": "Peñíscola", "Clasificac": null, "Ofertagas": "Sí", "Restaurant": "Sí", "Desayuno": "No", "Buffet": "No", "WebInfo": "http://www.elpenyon.es/inicio" }, "geometry": { "type": "Point", "coordinates": [ 0.40705727344472, 40.359106988669325 ] } },
{ "type": "Feature", "properties": { "Id": "66BM", "Nombre": "Hotel Restaurante Muva Beach", "Dirección": "C/ Porteta 5, 12598", "Localidad": "Peñíscola", "Clasificac": "1*", "Ofertagas": "Sí", "Restaurant": "Sí", "Desayuno": "Sí", "Buffet": "No", "WebInfo": "http://www.muvabeach.com/" }, "geometry": { "type": "Point", "coordinates": [ 0.406008277383497, 40.359318054687904 ] } },
{ "type": "Feature", "properties": { "Id": "69BM", "Nombre": "Hotel Restaurante Tio Pepe", "Dirección": "Avd. España 32, 12598", "Localidad": "Peñíscola", "Clasificac": "2*", "Ofertagas": "Sí", "Restaurant": "Sí", "Desayuno": "No", "Buffet": "No", "WebInfo": "http://www.hotelrestaurantetiopepe.com/" }, "geometry": { "type": "Point", "coordinates": [ 0.401554013744995, 40.359710489763813 ] } },
{ "type": "Feature", "properties": { "Id": "74BM", "Nombre": "Camping Eden", "Dirección": "Crta. CS-501 Benicarló-Peñíscola, Km. 6", "Localidad": "Peñíscola", "Clasificac": null, "Ofertagas": "Sí", "Restaurant": "Sí", "Desayuno": "No", "Buffet": "No", "WebInfo": "https://www.camping-eden.com/" }, "geometry": { "type": "Point", "coordinates": [ 0.403262208316481, 40.371188690169575 ] } },
{ "type": "Feature", "properties": { "Id": "75BM", "Nombre": "Camping Ferrer", "Dirección": "Ctra. Estación, 33, 12598", "Localidad": "Peñíscola", "Clasificac": null, "Ofertagas": "Sí", "Restaurant": "Sí", "Desayuno": "No", "Buffet": "No", "WebInfo": "http://www.campingferrer.com/" }, "geometry": { "type": "Point", "coordinates": [ 0.395817663068234, 40.362707347105577 ] } },
{ "type": "Feature", "properties": { "Id": "76BM", "Nombre": "Camping Bungalow Sol D'Or", "Dirección": "Av. de la Estacion, 137, 12598", "Localidad": "Peñíscola", "Clasificac": null, "Ofertagas": "Sí", "Restaurant": "Sí", "Desayuno": "No", "Buffet": "No", "WebInfo": "https://www.campingsoldor.com/" }, "geometry": { "type": "Point", "coordinates": [ 0.385221715430289, 40.380356176446945 ] } },
{ "type": "Feature", "properties": { "Id": "77BM", "Nombre": "Camping El Cid", "Dirección": "C/ Azagador de la Cruz, s/n, 12598", "Localidad": "Peñíscola", "Clasificac": null, "Ofertagas": "Sí", "Restaurant": "Sí", "Desayuno": "No", "Buffet": "No", "WebInfo": "https://campingelcid.com/" }, "geometry": { "type": "Point", "coordinates": [ 0.392372160068762, 40.376165457973684 ] } },
{ "type": "Feature", "properties": { "Id": "81BM", "Nombre": "Aparthotel Alcossebre Sea Experience", "Dirección": "Carrer els Camps, 3, 12579", "Localidad": "Alcalá de Xivert-Alcossebre", "Clasificac": null, "Ofertagas": "No", "Restaurant": "Sí", "Desayuno": "No", "Buffet": "No", "WebInfo": "https://www.alcossebreseaexperience.com/" }, "geometry": { "type": "Point", "coordinates": [ 0.272640104759677, 40.238886757447652 ] } },
{ "type": "Feature", "properties": { "Id": "82BM", "Nombre": "Hotel Alcossebre", "Dirección": "C/ Dels Murs, s/n, 12100", "Localidad": "Alcalá de Xivert-Alcossebre", "Clasificac": null, "Ofert gas": "Sí", "Restaurant": "Sí", "Desayuno": "Sí", "Buffet": "Sí", "WebInfo": "https://alcossebrehotel.com/es" }, "geometry": { "type": "Point", "coordinates": [ 0.28344182186864, 40.247407301240564 ] } },
{ "type": "Feature", "properties": { "Id": "83BM", "Nombre": "Hotel Sancho III", "Dirección": "Calle L’Atall, zona Ribamar, 11A, 12579", "Localidad": "Alcalá de Xivert-Alcossebre", "Clasificac": null, "Ofertagas": "Sí", "Restaurant": "Sí", "Desayuno": "No", "Buffet": "Sí", "WebInfo": "www.hotelsancho.com" }, "geometry": { "type": "Point", "coordinates": [ 0.291395612709326, 40.255566577569098 ] } },
{ "type": "Feature", "properties": { "Id": "84BM", "Nombre": "Camper Park Las Moreras Ac", "Dirección": "Calle Na Violante de Hungría, 18, 12579", "Localidad": "Alcalá de Xivert-Alcossebre", "Clasificac": null, "Ofertagas": "No", "Restaurant": "No", "Desayuno": "No", "Buffet": "No", "WebInfo": "https://lasmorerasac.com/" }, "geometry": { "type": "Point", "coordinates": [ 0.271835879853246, 40.245367520344551 ] } },
{ "type": "Feature", "properties": { "Id": "85BM", "Nombre": "Apartamentos Cap y Corp", "Dirección": "Camí l’Atall, s/n – Playa del Serradall", "Localidad": "Alcalá de Xivert-Alcossebre", "Clasificac": null, "Ofertagas": "No", "Restaurant": "No", "Desayuno": "No", "Buffet": "No", "WebInfo": "http://apartamentoscapycorp.com/" }, "geometry": { "type": "Point", "coordinates": [ 0.264959485805291, 40.212848510903513 ] } },
{ "type": "Feature", "properties": { "Id": "86BM", "Nombre": "Campingpark Los Olivos", "Dirección": "Camino Cervera, s/n, 12570", "Localidad": "Alcalá de Xivert-Alcossebre", "Clasificac": null, "Ofertagas": "No", "Restaurant": "No", "Desayuno": "No", "Buffet": "No", "WebInfo": "https://www.losolivoscampingpark.es/" }, "geometry": { "type": "Point", "coordinates": [ 0.21977284111023, 40.308194013435227 ] } },
{ "type": "Feature", "properties": { "Id": "91BM", "Nombre": "Complejo Eurhostal", "Dirección": "Calle Jai Alai 2, 12579", "Localidad": "Alcalá de Xivert-Alcossebre", "Clasificac": null, "Ofertagas": "Sí", "Restaurant": "Sí", "Desayuno": "No", "Buffet": "Sí", "WebInfo": "https://www.eurhostal.com/" }, "geometry": { "type": "Point", "coordinates": [ 0.284864571816247, 40.251302918863807 ] } },
{ "type": "Feature", "properties": { "Id": "92BM", "Nombre": "Camping Ribamar", "Dirección": "Partida Ribamar s/n", "Localidad": null, "Clasificac": null, "Oferta gas": "Sí", "Restaurant": "Sí", "Desayuno": "No", "Buffet": "No", "WebInfo": "https://campingribamar.com/" }, "geometry": { "type": "Point", "coordinates": [ 0.306690821018248, 40.270297689615028 ] } },
{ "type": "Feature", "properties": { "Id": "103BM", "Nombre": "Hotel Restaurante La Perdi", "Dirección": "c/ Historiador Betí, 9", "Localidad": "Sant Mateu", "Clasificac": null, "Ofertagas": "Sí", "Restaurant": "Sí", "Desayuno": "No", "Buffet": "No", "WebInfo": "http://laperdi.es/" }, "geometry": { "type": "Point", "coordinates": [ 0.179774742685983, 40.465905301741621 ] } },
{ "type": "Feature", "properties": { "Id": "104BM", "Nombre": "Complejo Rural Turi Maestrat", "Dirección": "C/ Historiador Beti 37 12170", "Localidad": "Sant Mateu", "Clasificac": null, "Ofertagas": "Sí", "Restaurant": "No", "Desayuno": "No", "Buffet": "No", "WebInfo": "https://www.turimaestrat.com/" }, "geometry": { "type": "Point", "coordinates": [ 0.178935896774522, 40.466621927080396 ] } },
{ "type": "Feature", "properties": { "Id": "105BM", "Nombre": "Casa Rural Les Caixes", "Dirección": "Calle Bonaire, 16", "Localidad": "Sant Mateu", "Clasificac": null, "Ofertagas": "No", "Restaurant": "No", "Desayuno": "No", "Buffet": "No", "WebInfo": "https://santmateurural.com/" }, "geometry": { "type": "Point", "coordinates": [ 0.178287273742569, 40.464622243165572 ] } },
{ "type": "Feature", "properties": { "Id": "106BM", "Nombre": "Apartamentos Rurales Selmi", "Dirección": "Carrer de la Cort, 32, 12170", "Localidad": "Sant Mateu", "Clasificac": null, "Ofertagas": "No", "Restaurant": "No", "Desayuno": "No", "Buffet": "No", "WebInfo": "http://www.apartamentsselmi.com/" }, "geometry": { "type": "Point", "coordinates": [ 0.178481442503813, 40.465238372691232 ] } },
{ "type": "Feature", "properties": { "Id": "111BM", "Nombre": "Camping Orangeraie", "Dirección": "Camino Peñíscola-Càlig s/n, 12589", "Localidad": "Cálig", "Clasificac": "3*", "Ofertagas": "No", "Restaurant": "Sí", "Desayuno": "No", "Buffet": "No", "WebInfo": "https://www.camping-lorangeraie.es/es" }, "geometry": { "type": "Point", "coordinates": [ 0.35293382579424, 40.451847171129224 ] } },
{ "type": "Feature", "properties": { "Id": "116BM", "Nombre": "Casa Rural La Torre", "Dirección": "C/ San Lorenzo, 6 12589", "Localidad": "Cálig", "Clasificac": null, "Ofertagas": "No", "Restaurant": "No", "Desayuno": "No", "Buffet": "No", "WebInfo": "http://www.casarurallatorrecalig.com/" }, "geometry": { "type": "Point", "coordinates": [ 0.35492428724229, 40.461750685231962 ] } },
{ "type": "Feature", "properties": { "Id": "118BM", "Nombre": "Casa Rural Mediterranea Rural", "Dirección": "C/ Beato Tobias, 7, 12320", "Localidad": "San Jorge", "Clasificac": null, "Ofertagas": "No", "Restaurant": "No", "Desayuno": "No", "Buffet": "No", "WebInfo": "https://mediterranearural.es/" }, "geometry": { "type": "Point", "coordinates": [ 0.329329311835034, 40.50692128923454 ] } },
{ "type": "Feature", "properties": { "Id": "129BM", "Nombre": "Casa Tía Salomé/Casa Rural l'Amborget", "Dirección": "C/ San Vicente, 10, 12320", "Localidad": "San Jorge", "Clasificac": null, "Ofertagas": "No", "Restaurant": "No", "Desayuno": "No", "Buffet": "No", "WebInfo": "http://amborget.com/" }, "geometry": { "type": "Point", "coordinates": [ 0.330926656089531, 40.509153880165506 ] } },
{ "type": "Feature", "properties": { "Id": "130BM", "Nombre": "Casas Rurales Mas dels Estellers", "Dirección": "Calle horno, No 11-15, 12320", "Localidad": "San Jorge", "Clasificac": null, "Ofertagas": "No", "Restaurant": "No", "Desayuno": "No", "Buffet": "No", "WebInfo": "http://masdelsestellers.com/" }, "geometry": { "type": "Point", "coordinates": [ 0.330420542160854, 40.510609540819132 ] } },
{ "type": "Feature", "properties": { "Id": "131BM", "Nombre": "Casa Rural Els Matalapers", "Dirección": "Carrer Juan Bta. Ronchera, 13, 12320", "Localidad": "San Jorge", "Clasificac": null, "Ofertagas": "No", "Restaurant": "No", "Desayuno": "No", "Buffet": "No", "WebInfo": "https://casaelsmatalapers.com/" }, "geometry": { "type": "Point", "coordinates": [ 0.333239295078243, 40.509150169712051 ] } },
{ "type": "Feature", "properties": { "Id": "132BM", "Nombre": "Casas Rurales Hort del Viver", "Dirección": "Carrer Maestrat, 1", "Localidad": "San Jorge", "Clasificac": null, "Ofertagas": "No", "Restaurant": "No", "Desayuno": "No", "Buffet": "No", "WebInfo": "ttps://www.hortdelviver.com/" }, "geometry": { "type": "Point", "coordinates": [ 0.33040373879503, 40.511699825088918 ] } },
{ "type": "Feature", "properties": { "Id": "133BM", "Nombre": "Camping Maestrat Park", "Dirección": "CV 136 Km 1.5, 12320", "Localidad": "San Jorge", "Clasificac": null, "Ofertagas": "Sí", "Restaurant": "Sí", "Desayuno": "No", "Buffet": "No", "WebInfo": "https://www.maestratpark.es/" }, "geometry": { "type": "Point", "coordinates": [ 0.318431712839678, 40.493157708462 ] } },
{ "type": "Feature", "properties": { "Id": "138BM", "Nombre": "Casa Rural Manolita", "Dirección": "Carrer d'Enmig, 7, 12599", "Localidad": "Puebla de Benifasar", "Clasificac": null, "Ofertagas": "No", "Restaurant": "No", "Desayuno": "No", "Buffet": "No", "WebInfo": "https://casaruralmanolita.com/" }, "geometry": { "type": "Point", "coordinates": [ 0.156083258806878, 40.656319444548672 ] } },
{ "type": "Feature", "properties": { "Id": "139BM", "Nombre": "Turismo Rural Molí l’Abad", "Dirección": "Cr. La Senia a, Km, 5, 12599", "Localidad": "Puebla de Benifasar", "Clasificac": null, "Ofertagas": "Sí", "Restaurant": "Sí", "Desayuno": "Sí", "Buffet": "No", "WebInfo": "https://www.moliabad.com/" }, "geometry": { "type": "Point", "coordinates": [ 0.252594967075926, 40.669147785725748 ] } },
{ "type": "Feature", "properties": { "Id": "144BM", "Nombre": "Casa Rural Calmatiner", "Dirección": "Calle de la Concepción número 8", "Localidad": "La Salzadella", "Clasificac": null, "Ofertagas": "No", "Restaurant": "No", "Desayuno": "No", "Buffet": "No", "WebInfo": "www.calmatiner.com" }, "geometry": { "type": "Point", "coordinates": [ 0.17395835036812, 40.417274937480812 ] } },
{ "type": "Feature", "properties": { "Id": "153BM", "Nombre": "Casa Cota", "Dirección": "C/ Nou, nº 27", "Localidad": "Cervera del Maestre", "Clasificac": null, "Ofertagas": "No", "Restaurant": "No", "Desayuno": "No", "Buffet": "No", "WebInfo": "https://cerverarural.wixsite.com/casacota" }, "geometry": { "type": "Point", "coordinates": [ 0.276307962492468, 40.454713264900285 ] } },
{ "type": "Feature", "properties": { "Id": "1278", "Nombre": "Art Rustic", "Dirección": "Aldea Anroig, 28-32", "Localidad": "Xert", "Clasificac": null, "Ofertagas": "Sí", "Restaurant": "No", "Desayuno": "No", "Buffet": "No", "WebInfo": "https://casaconjacuzzi.com/" }, "geometry": { "type": "Point", "coordinates": [ 0.120023687281376, 40.51305618645781 ] } },
{ "type": "Feature", "properties": { "Id": "1281", "Nombre": "AP Costas Habitat", "Dirección": "Playa Romana s/n, 12579 Alcossebre", "Localidad": "Alcalá de Xivert-Alcossebre", "Clasificac": null, "Ofertagas": "Sí", "Restaurant": "Sí", "Desayuno": "No", "Buffet": null, "WebInfo": "https://www.apcostas.com/apartamentos-alcoceber/ap-costas-habitat-/-un-dormitorio-y-literas-h1058/" }, "geometry": { "type": "Point", "coordinates": [ 0.272633856338607, 40.236806322587135 ] } },
{ "type": "Feature", "properties": { "Id": "37MB", "Nombre": "HOTEL MELIÀ VILLAITANA", "Dirección": "Avda. Alcalde Eduarzo Zaplana N º 7 03502", "Localidad": "BENIDORM", "Clasificac": "4*", "Ofertagas": "Sí", "Restaurant": "Sí", "Desayuno": "Sí", "Buffet": "Sí", "WebInfo": "https://www.melia.com/es/hoteles/espana/alicante/melia-villaitana/index.htm" }, "geometry": { "type": "Point", "coordinates": [ -0.147291115467263, 38.558485416013767 ] } },
{ "type": "Feature", "properties": { "Id": "38MB", "Nombre": "SOL PELÍCANOS OCAS", "Dirección": "C/ Gerona, 45 - 03500", "Localidad": "BENIDORM", "Clasificac": "3*", "Ofertagas": "Sí", "Restaurant": "Sí", "Desayuno": null, "Buffet": "Sí", "WebInfo": "https://www.melia.com/es/hoteles/espana/benidorm/sol-pelicanos-ocas/index.htm?esl-k" }, "geometry": { "type": "Point", "coordinates": [ -0.108851742710055, 38.536747762173349 ] } },
{ "type": "Feature", "properties": { "Id": "39MB", "Nombre": "HOTEL CIMBEL", "Dirección": "Avda. Europa, 1 - 03503", "Localidad": "BENIDORM", "Clasificac": "4*", "Ofertagas": "Sí", "Restaurant": "Sí", "Desayuno": "Sí", "Buffet": "Sí", "WebInfo": "https://www.hotelcimbel.com/" }, "geometry": { "type": "Point", "coordinates": [ -0.120588820475344, 38.536109254217642 ] } },
{ "type": "Feature", "properties": { "Id": "40MB", "Nombre": "HOTEL MADEIRA CENTRO", "Dirección": "C/ Esperanto, 1 - 03503", "Localidad": "BENIDORM", "Clasificac": "4*", "Ofertagas": "Sí", "Restaurant": "Sí", "Desayuno": "No", "Buffet": "Sí", "WebInfo": "https://www.madeiracentro.com/" }, "geometry": { "type": "Point", "coordinates": [ -0.125733324354058, 38.537695301681168 ] } },
{ "type": "Feature", "properties": { "Id": "42MB", "Nombre": "HOTEL MONTESOL", "Dirección": "C/Almendros nº19", "Localidad": "BENIDORM", "Clasificac": "3*", "Ofertagas": "Sí", "Restaurant": "Sí", "Desayuno": "No", "Buffet": "Sí", "WebInfo": "https://www.hotelmontesolbenidorm.com/" }, "geometry": { "type": "Point", "coordinates": [ -0.132793283529619, 38.538715438643266 ] } },
{ "type": "Feature", "properties": { "Id": "43MB", "Nombre": "PORT BENIDORM HOTEL&SPA", "Dirección": "Avda. de Estocolmo, 4 - 03503", "Localidad": "BENIDORM", "Clasificac": "4*", "Ofertagas": "Sí", "Restaurant": "Sí", "Desayuno": "Sí", "Buffet": "Sí", "WebInfo": "https://www.porthotels.es/port-benidorm.html" }, "geometry": { "type": "Point", "coordinates": [ -0.106571845788407, 38.533817371681494 ] } },
{ "type": "Feature", "properties": { "Id": "44MB", "Nombre": "HOTEL PORT FIESTA PARK", "Dirección": "Avda. Foietes, 4  - 03502", "Localidad": "BENIDORM", "Clasificac": "3*", "Ofertagas": "Sí", "Restaurant": "Sí", "Desayuno": null, "Buffet": "Sí", "WebInfo": "https://www.porthotels.es/port-fiesta.html" }, "geometry": { "type": "Point", "coordinates": [ -0.135422189368117, 38.541843079118564 ] } },
{ "type": "Feature", "properties": { "Id": "46MB", "Nombre": "HOTEL ROSAMAR", "Dirección": "Calle Derramador, 6  -  03503", "Localidad": "BENIDORM", "Clasificac": "3*", "Ofertagas": "Sí", "Restaurant": "Sí", "Desayuno": null, "Buffet": "Sí", "WebInfo": "https://www.hotelrosamar.com/" }, "geometry": { "type": "Point", "coordinates": [ -0.110677460941213, 38.537846977187684 ] } },
{ "type": "Feature", "properties": { "Id": "47MB", "Nombre": "HOTEL SERVIGROUP DIPLOMATIC", "Dirección": "Calle Gerona, 9 - 11", "Localidad": "BENIDORM", "Clasificac": "4*", "Ofertagas": "Sí", "Restaurant": "Sí", "Desayuno": "Sí", "Buffet": "Sí", "WebInfo": "https://www.servigroup.com/es/hoteles-en-benidorm/hotel-servigroup-diplomatic/" }, "geometry": { "type": "Point", "coordinates": [ -0.122043236784267, 38.538469494927888 ] } },
{ "type": "Feature", "properties": { "Id": "48MB", "Nombre": "HOTEL SERVIGROUP CASTILLA", "Dirección": "C/ Jaén, 3  -   03504", "Localidad": "BENIDORM", "Clasificac": "4*", "Ofertagas": "Sí", "Restaurant": "Sí", "Desayuno": "Sí", "Buffet": "Sí", "WebInfo": "https://www.servigroup.com/es/hoteles-en-benidorm/hotel-servigroup-castilla/" }, "geometry": { "type": "Point", "coordinates": [ -0.118812670663876, 38.540948674146293 ] } },
{ "type": "Feature", "properties": { "Id": "49MB", "Nombre": "HOTEL SERVIGROUP CALYPSO", "Dirección": "Avda. Derramador, 4  -  03503", "Localidad": "BENIDORM", "Clasificac": "3*", "Ofertagas": "Sí", "Restaurant": "Sí", "Desayuno": null, "Buffet": "Sí", "WebInfo": "https://www.servigroup.com/es/hoteles-en-benidorm/hotel-servigroup-calypso/" }, "geometry": { "type": "Point", "coordinates": [ -0.11034347773373, 38.537307168396659 ] } },
{ "type": "Feature", "properties": { "Id": "50MB", "Nombre": "HOTEL SERVIGROUP NEREO", "Dirección": "Av. De Ametla de Mar, 12  -  03503", "Localidad": "BENIDORM", "Clasificac": "4*", "Ofertagas": "Sí", "Restaurant": "Sí", "Desayuno": null, "Buffet": "Sí", "WebInfo": "https://www.servigroup.com/es/hoteles-en-benidorm/hotel-servigroup-nereo/" }, "geometry": { "type": "Point", "coordinates": [ -0.106491020825231, 38.535833496714204 ] } },
{ "type": "Feature", "properties": { "Id": "51MB", "Nombre": "HOTEL SERVIGROUP PUEBLO BENIDORM", "Dirección": "C/ Ibiza 17  - 03503", "Localidad": "BENIDORM", "Clasificac": "3*", "Ofertagas": "Sí", "Restaurant": "Sí", "Desayuno": null, "Buffet": "Sí", "WebInfo": "https://www.servigroup.com/es/hoteles-en-benidorm/hotel-servigroup-pueblo-benidorm" }, "geometry": { "type": "Point", "coordinates": [ -0.1145880231788, 38.539880534689487 ] } },
{ "type": "Feature", "properties": { "Id": "52MB", "Nombre": "HOTEL SERVIGROUP TORRE DORADA", "Dirección": "C/ Avilés (La Cala)  /  03502", "Localidad": "BENIDORM", "Clasificac": "3*", "Ofertagas": "Sí", "Restaurant": "Sí", "Desayuno": null, "Buffet": "Sí", "WebInfo": "https://www.servigroup.com/es/hoteles-en-benidorm/hotel-servigroup-torre-dorada/" }, "geometry": { "type": "Point", "coordinates": [ -0.161518667910757, 38.531379381524957 ] } },
{ "type": "Feature", "properties": { "Id": "53MB", "Nombre": "HOTEL RH ROYAL - ADULTS ONLY", "Dirección": "Vía Emilio Ortuño, 11  -  03501", "Localidad": "BENIDORM", "Clasificac": "4*", "Ofertagas": "Sí", "Restaurant": "Sí", "Desayuno": "No", "Buffet": "Sí", "WebInfo": "https://www.hotelrhroyal.com/" }, "geometry": { "type": "Point", "coordinates": [ -0.126599569557747, 38.538986922576235 ] } },
{ "type": "Feature", "properties": { "Id": "54MB", "Nombre": "HOTEL DON PANCHO", "Dirección": "Av. Del Mediterráneo, 39  - 03503", "Localidad": "BENIDORM", "Clasificac": "4*", "Ofertagas": "Sí", "Restaurant": "Sí", "Desayuno": null, "Buffet": "Sí", "WebInfo": "https://www.hoteldonpancho.es/" }, "geometry": { "type": "Point", "coordinates": [ -0.113571992586941, 38.536603043947004 ] } },
{ "type": "Feature", "properties": { "Id": "55MB", "Nombre": "HOTEL SOL COSTABLANCA", "Dirección": "Av. Alcoi s/n  -  03503", "Localidad": "BENIDORM", "Clasificac": "4*", "Ofertagas": "Sí", "Restaurant": "Sí", "Desayuno": "No", "Buffet": "Sí", "WebInfo": "https://www.melia.com/es/hoteles/espana/benidorm/sol-costablanca/index.htm" }, "geometry": { "type": "Point", "coordinates": [ -0.122401198453062, 38.536108799880921 ] } },
{ "type": "Feature", "properties": { "Id": "56MB", "Nombre": "HOTEL PRESIDENTE", "Dirección": "AV. De Filipinas, 10  -  03503", "Localidad": "BENIDORM", "Clasificac": "4*", "Ofertagas": "Sí", "Restaurant": "Sí", "Desayuno": "Sí", "Buffet": "Sí", "WebInfo": "https://www.hotelesbenidorm.com/hoteles/hotel-presidente/" }, "geometry": { "type": "Point", "coordinates": [ -0.113930540730712, 38.537963313673494 ] } },
{ "type": "Feature", "properties": { "Id": "57MB", "Nombre": "HOTEL RIVIERA BEACHOTEL", "Dirección": "C/ Derramador, 8", "Localidad": "BENIDORM", "Clasificac": "4*", "Ofertagas": "Sí", "Restaurant": "Sí", "Desayuno": "No", "Buffet": "Sí", "WebInfo": "https://www.hotelesbenidorm.com/hoteles/riviera-beachotel/" }, "geometry": { "type": "Point", "coordinates": [ -0.111349251673963, 38.537971680835042 ] } },
{ "type": "Feature", "properties": { "Id": "58MB", "Nombre": "HOTEL LES DUNES SUITES", "Dirección": "Av. Madrid, 8  -  03503", "Localidad": "BENIDORM", "Clasificac": null, "Ofertagas": "Sí", "Restaurant": "Sí", "Desayuno": "No", "Buffet": "Sí", "WebInfo": "https://www.lesdunessuitesbenidorm.com/" }, "geometry": { "type": "Point", "coordinates": [ -0.117088415804779, 38.535581582362695 ] } },
{ "type": "Feature", "properties": { "Id": "74MB", "Nombre": "HOTEL SH VILLA GADEA", "Dirección": "Partida Villa Gadea s/n", "Localidad": "ALTEA", "Clasificac": "5*", "Ofertagas": "Sí", "Restaurant": "Sí", "Desayuno": "No", "Buffet": "Sí", "WebInfo": "https://www.hotel-villa-gadea.com/es/" }, "geometry": { "type": "Point", "coordinates": [ -0.027086476115567, 38.620827285960814 ] } },
{ "type": "Feature", "properties": { "Id": "75MB", "Nombre": "VILLA VENECIA HOTEL BOUTIQUE GOURMET", "Dirección": "Plaça de Sant Jaume, 1", "Localidad": "BENIDORM", "Clasificac": "5*", "Ofertagas": "Sí", "Restaurant": "Sí", "Desayuno": null, "Buffet": null, "WebInfo": "https://www.hotelvillavenecia.com/ofertas/" }, "geometry": { "type": "Point", "coordinates": [ -0.130664465909444, 38.533978292694776 ] } },
{ "type": "Feature", "properties": { "Id": "78MB", "Nombre": "HOTEL BOUTIQUE LA SERENA", "Dirección": "Carrer Alba, 10", "Localidad": "ALTEA", "Clasificac": "4*", "Ofertagas": "Sí", "Restaurant": "Sí", "Desayuno": "Sí", "Buffet": "No", "WebInfo": "https://www.hotellaserena.com/" }, "geometry": { "type": "Point", "coordinates": [ -0.049434547543779, 38.600933357819201 ] } },
{ "type": "Feature", "properties": { "Id": "79MB", "Nombre": "MIMAR VILLA ALTEA", "Dirección": "Partida Montahud, 4", "Localidad": "ALTEA", "Clasificac": null, "Ofertagas": "Sí", "Restaurant": "Sí", "Desayuno": "No", "Buffet": "No", "WebInfo": "https://mimarspain.com/mimar-villa-altea/" }, "geometry": { "type": "Point", "coordinates": [ -0.071412390889203, 38.605080621007794 ] } },
{ "type": "Feature", "properties": { "Id": "80MB", "Nombre": "HOTEL TOSSAL D'ALTEA", "Dirección": "Partida el Pla de Castell, 96", "Localidad": "ALTEA", "Clasificac": "4*", "Ofertagas": "Sí", "Restaurant": "Sí", "Desayuno": null, "Buffet": "No", "WebInfo": "https://www.hoteltossalaltea.com/es/" }, "geometry": { "type": "Point", "coordinates": [ -0.062243938539479, 38.599886478553522 ] } },
{ "type": "Feature", "properties": { "Id": "81MB", "Nombre": "HOSTAL LA COSTERA", "Dirección": "Calle Costera del Mestre Musica, 8", "Localidad": "ALTEA", "Clasificac": null, "Ofertagas": "Sí", "Restaurant": "Sí", "Desayuno": "No", "Buffet": "No", "WebInfo": "https://altealacostera.com/" }, "geometry": { "type": "Point", "coordinates": [ -0.049858417353285, 38.600115197173338 ] } },
{ "type": "Feature", "properties": { "Id": "82MB", "Nombre": "HOSTAL  ALTEA HOUSE", "Dirección": "Carrer la Mar, 58", "Localidad": "ALTEA", "Clasificac": null, "Ofertagas": "No", "Restaurant": "No", "Desayuno": "No", "Buffet": "No", "WebInfo": "https://www.alteahouse.com/es/index.html" }, "geometry": { "type": "Point", "coordinates": [ -0.049276945802767, 38.59805541220485 ] } },
{ "type": "Feature", "properties": { "Id": "83MB", "Nombre": "HOTEL CAP NEGRET", "Dirección": "Km 159 N-332", "Localidad": "ALTEA", "Clasificac": "4*", "Ofertagas": "Sí", "Restaurant": "Sí", "Desayuno": "No", "Buffet": "Sí", "WebInfo": "https://www.hotelcapnegret.es/" }, "geometry": { "type": "Point", "coordinates": [ -0.038153354818233, 38.608918654063409 ] } },
{ "type": "Feature", "properties": { "Id": "84MB", "Nombre": "MIMAR URBAN ALTEA SOL", "Dirección": "Carrer Sol, 9", "Localidad": "ALTEA", "Clasificac": null, "Ofertagas": "No", "Restaurant": "No", "Desayuno": "No", "Buffet": "No", "WebInfo": "https://mimarspain.com/mimar-urban-altea-urban-sol/" }, "geometry": { "type": "Point", "coordinates": [ -0.050123558760322, 38.599247983861083 ] } },
{ "type": "Feature", "properties": { "Id": "85MB", "Nombre": "HOTEL SUN PALACE ALBIR & SPA", "Dirección": "Carrer HÉercules, 1", "Localidad": "L'ALFAÇ DEL PI", "Clasificac": "4*", "Ofertagas": "Sí", "Restaurant": "Sí", "Desayuno": "No", "Buffet": "No", "WebInfo": "https://www.hotelsunpalacealbir.com/" }, "geometry": { "type": "Point", "coordinates": [ -0.067298829440726, 38.567093184477322 ] } },
{ "type": "Feature", "properties": { "Id": "87MB", "Nombre": "HOTEL DYNASTIC BENIDORM", "Dirección": "AV. Ametlla de Mar, 15", "Localidad": "BENIDORM", "Clasificac": "4*", "Ofertagas": "Sí", "Restaurant": "Sí", "Desayuno": "Sí", "Buffet": "Sí", "WebInfo": "https://www.hoteldynastic.com/" }, "geometry": { "type": "Point", "coordinates": [ -0.10647244913399, 38.538013331498462 ] } },
{ "type": "Feature", "properties": { "Id": "88MB", "Nombre": "ALBIR PLAYA & SPA", "Dirección": "Cami Vell d'Altea, 51", "Localidad": "L'ALFAÇ DEL PI", "Clasificac": "4*", "Ofertagas": "Sí", "Restaurant": "Sí", "Desayuno": "Sí", "Buffet": "Sí", "WebInfo": "https://www.albirplayahotel.com/es/" }, "geometry": { "type": "Point", "coordinates": [ -0.074806642749191, 38.574092296124732 ] } },
{ "type": "Feature", "properties": { "Id": "89MB", "Nombre": "MAGIC ROBIN HOOD SPORTS, WATER PARK & MEDIEVAL LODGE RESORT", "Dirección": "Camino viejo de Altea, 1", "Localidad": "L'ALBIR", "Clasificac": "4*", "Ofertagas": "Sí", "Restaurant": "Sí", "Desayuno": "Sí", "Buffet": "Sí", "WebInfo": "https://www.magicrobinhood.com/" }, "geometry": { "type": "Point", "coordinates": [ -0.087871517457343, 38.565174691439601 ] } },
{ "type": "Feature", "properties": { "Id": "90MB", "Nombre": "HOTEL NASILVANA", "Dirección": "Calle Trencacames, 7  03516", "Localidad": "BENIMANTELL", "Clasificac": "2*", "Ofertagas": "Sí", "Restaurant": "Sí", "Desayuno": "Sí", "Buffet": "No", "WebInfo": "http://www.nasilvana.com/" }, "geometry": { "type": "Point", "coordinates": [ -0.209628388934596, 38.675843087570314 ] } },
{ "type": "Feature", "properties": { "Id": "91MB", "Nombre": "VIVOOD LANDSCAPE HOTEL", "Dirección": "Ctra. D'Alcoi, 10", "Localidad": "BENIMANTELL", "Clasificac": "3*", "Ofertagas": "Sí", "Restaurant": "Sí", "Desayuno": "No", "Buffet": "Sí", "WebInfo": "https://www.vivood.com/" }, "geometry": { "type": "Point", "coordinates": [ -0.204183932632678, 38.679596055751723 ] } },
{ "type": "Feature", "properties": { "Id": "92MB", "Nombre": "LLAR DE BENIARDÀ", "Dirección": "Carrer Sant Francesc, 29", "Localidad": "BENIARDÀ", "Clasificac": null, "Ofertagas": null, "Restaurant": null, "Desayuno": "Sí", "Buffet": null, "WebInfo": "https://llardebeniarda.es/" }, "geometry": { "type": "Point", "coordinates": [ -0.215367640858435, 38.684034473336361 ] } },
{ "type": "Feature", "properties": { "Id": "93MB", "Nombre": "CASES NOVES (BOUTIQUE ACCOMMODATION)", "Dirección": "Calle Alchova, 1", "Localidad": "CASTELL DE GUADALEST", "Clasificac": "4*", "Ofertagas": "Sí", "Restaurant": "Sí", "Desayuno": "Sí", "Buffet": "No", "WebInfo": "https://www.hotelruralenalicante.es/" }, "geometry": { "type": "Point", "coordinates": [ -0.198808280376968, 38.675088720880105 ] } },
{ "type": "Feature", "properties": { "Id": "94MB", "Nombre": "PUIG CAMPANA NATURE SUITES HOTEL & BTT", "Dirección": "Plaça Alhambra Secot 17-18", "Localidad": "FINESTRAT", "Clasificac": "3*", "Ofertagas": "Sí", "Restaurant": "Sí", "Desayuno": "Sí", "Buffet": "No", "WebInfo": "https://www.naturesuiteshotel.com/" }, "geometry": { "type": "Point", "coordinates": [ -0.206888673326448, 38.57211371457025 ] } },
{ "type": "Feature", "properties": { "Id": "95MB", "Nombre": "BOUTIQUE HOTEL FINCA EL TOSSAL", "Dirección": "Partida Foia, 5", "Localidad": "BOLULLA", "Clasificac": "4*", "Ofertagas": "Sí", "Restaurant": "Sí", "Desayuno": "Sí", "Buffet": "No", "WebInfo": "https://www.fincaeltossal.com/es/" }, "geometry": { "type": "Point", "coordinates": [ -0.095904485674941, 38.670450681888205 ] } },
{ "type": "Feature", "properties": { "Id": "96MB", "Nombre": "EL TOSSAL CASA RURAL", "Dirección": "Calle Aitana, 5", "Localidad": "CASTELL DE GUADALEST", "Clasificac": "2*", "Ofertagas": "No", "Restaurant": "No", "Desayuno": "Sí", "Buffet": "Sí", "WebInfo": "https://www.alojamientorural.casa/" }, "geometry": { "type": "Point", "coordinates": [ -0.200276610142543, 38.675159943777018 ] } },
{ "type": "Feature", "properties": { "Id": "97MB", "Nombre": "HOTEL RESTAURANTE LA PLANTACION", "Dirección": "Partida les Arenetes, 14 Ctra. CV-758", "Localidad": "FINESTRAT", "Clasificac": "3*", "Ofertagas": "Sí", "Restaurant": "Sí", "Desayuno": "No", "Buffet": "No", "WebInfo": "http://www.laplantacion.com/" }, "geometry": { "type": "Point", "coordinates": [ -0.196473254154043, 38.566665985918554 ] } },
{ "type": "Feature", "properties": { "Id": "122MB", "Nombre": "HOTEL SERVIGROUP MONTIBOLI", "Dirección": "Partida Montíboli S/N", "Localidad": "LA VILA JOIOSA", "Clasificac": "5*", "Ofertagas": "Sí", "Restaurant": "Sí", "Desayuno": "Sí", "Buffet": "Sí", "WebInfo": "https://www.montiboli.com/es" }, "geometry": { "type": "Point", "coordinates": [ -0.269184867120275, 38.494767336221969 ] } },
{ "type": "Feature", "properties": { "Id": "123MB", "Nombre": "HOTEL ALLON MEDITERRANEA", "Dirección": "Avenida del Puerto, 4", "Localidad": "LA VILA JOIOSA", "Clasificac": "4*", "Ofertagas": "Sí", "Restaurant": "Sí", "Desayuno": "No", "Buffet": "Sí", "WebInfo": "https://www.hotelallon.com/" }, "geometry": { "type": "Point", "coordinates": [ -0.228685057433341, 38.506032553607135 ] } },
{ "type": "Feature", "properties": { "Id": "124MB", "Nombre": "HOTEL CENSAL", "Dirección": "AVENIDA PAÍS VALENCIÀ nº 25", "Localidad": "LA VILA JOIOSA", "Clasificac": "3*", "Ofertagas": "Sí", "Restaurant": "Sí", "Desayuno": "No", "Buffet": "No", "WebInfo": "https://www.hotelcensal.com/" }, "geometry": { "type": "Point", "coordinates": [ -0.230429221810062, 38.506596409462411 ] } },
{ "type": "Feature", "properties": { "Id": "125MB", "Nombre": "CAMPING EL TORRES", "Dirección": "Playa El Torres", "Localidad": "LA VILA JOIOSA", "Clasificac": null, "Ofertagas": "Sí", "Restaurant": "Sí", "Desayuno": "No", "Buffet": "No", "WebInfo": "http://campingeltorres.com/" }, "geometry": { "type": "Point", "coordinates": [ -0.200098215087484, 38.515551033103627 ] } },
{ "type": "Feature", "properties": { "Id": "126MB", "Nombre": "BLUE LINE APARTAMENT HOTEL", "Dirección": "Avda. Marina Baixa, 11", "Localidad": "LA VILA JOIOSA", "Clasificac": "4*", "Ofertagas": "Sí", "Restaurant": "Sí", "Desayuno": "No", "Buffet": "No", "WebInfo": "https://bluelinehotel.com/" }, "geometry": { "type": "Point", "coordinates": [ -0.241697395833259, 38.500970166252678 ] } },
{ "type": "Feature", "properties": { "Id": "127MB", "Nombre": "CAMPING SANTA CLARA", "Dirección": "Partida Cap-Blanch, 11, 03590", "Localidad": "ALTEA", "Clasificac": null, "Ofertagas": "No", "Restaurant": "No", "Desayuno": "No", "Buffet": "No", "WebInfo": "https://www.campingsantaclaraaltea.com/" }, "geometry": { "type": "Point", "coordinates": [ -0.060683978638785, 38.587756750191531 ] } },
{ "type": "Feature", "properties": { "Id": "128MB", "Nombre": "CAMPING CAP BLANCH", "Dirección": "Ctra. Del Albir, 25  03590", "Localidad": "ALTEA", "Clasificac": null, "Ofertagas": "No", "Restaurant": "No", "Desayuno": "No", "Buffet": "No", "WebInfo": "http://www.camping-capblanch.com/" }, "geometry": { "type": "Point", "coordinates": [ -0.064736306019393, 38.577605894903023 ] } },
{ "type": "Feature", "properties": { "Id": "129MB", "Nombre": "SAN ANTONIO CAMPER PARK", "Dirección": "Carr. del Albir, 6, 03590", "Localidad": "ALTEA", "Clasificac": null, "Ofertagas": "No", "Restaurant": "No", "Desayuno": "No", "Buffet": "No", "WebInfo": "https://www.sanantonioaltea.com/" }, "geometry": { "type": "Point", "coordinates": [ -0.059724239316096, 38.585678493229047 ] } },
{ "type": "Feature", "properties": { "Id": "130MB", "Nombre": "CAMPING LA COLINA", "Dirección": "Carrer Serra Gelada, 4, 03581", "Localidad": "L'ALBIR", "Clasificac": null, "Ofertagas": "No", "Restaurant": "No", "Desayuno": "No", "Buffet": "No", "WebInfo": "https://www.campinglacolina.com/" }, "geometry": { "type": "Point", "coordinates": [ -0.08100648275542, 38.567796475437966 ] } },
{ "type": "Feature", "properties": { "Id": "131MB", "Nombre": "CAMPING PUIG CAMPANA", "Dirección": "Partida Tapiada Marraix, 57, 03509", "Localidad": "FINESTRAT", "Clasificac": null, "Ofertagas": "No", "Restaurant": "No", "Desayuno": "No", "Buffet": "No", "WebInfo": "http://puigcamp-cp192.wordpresstemporal.com/" }, "geometry": { "type": "Point", "coordinates": [ -0.181434034646298, 38.570638154239816 ] } },
{ "type": "Feature", "properties": { "Id": "132MB", "Nombre": "CAMPING PLAYA PARAISO", "Dirección": "Partida Paraíso, 66, 03570", "Localidad": "LA VILA JOIOSA", "Clasificac": null, "Ofertagas": "Sí", "Restaurant": "Sí", "Desayuno": "No", "Buffet": "No", "WebInfo": "http://www.campingplayaparaiso.com/" }, "geometry": { "type": "Point", "coordinates": [ -0.249268637054474, 38.499355424022291 ] } },
{ "type": "Feature", "properties": { "Id": "135MB", "Nombre": "CAMPING BON SOL", "Dirección": "Camí Reial de la Vila Joiósa, 35, 03560", "Localidad": "EL CAMPELLO", "Clasificac": null, "Ofertagas": "No", "Restaurant": "No", "Desayuno": "No", "Buffet": "No", "WebInfo": "https://www.campingbonsol.es/" }, "geometry": { "type": "Point", "coordinates": [ -0.404432577701041, 38.412609406401536 ] } },
{ "type": "Feature", "properties": { "Id": "136MB", "Nombre": "CAMPING ARMANELLO", "Dirección": "Camí de L'Armanello, S/N, 03503", "Localidad": "BENIDORM", "Clasificac": null, "Ofertagas": "Sí", "Restaurant": "Sí", "Desayuno": "No", "Buffet": "No", "WebInfo": "https://www.campingarmanello.com/" }, "geometry": { "type": "Point", "coordinates": [ -0.111325384909114, 38.547737369665064 ] } },
{ "type": "Feature", "properties": { "Id": "137MB", "Nombre": "CAMPING LA TORRETA", "Dirección": "Av. Dr. Severo Ochoa, 11, 03503", "Localidad": "BENIDORM", "Clasificac": null, "Ofertagas": "Sí", "Restaurant": "Sí", "Desayuno": "No", "Buffet": "No", "WebInfo": "https://www.campinglatorreta.com/" }, "geometry": { "type": "Point", "coordinates": [ -0.103366491058169, 38.544234087251013 ] } },
{ "type": "Feature", "properties": { "Id": "138MB", "Nombre": "CAMPING ALICANTE IMPERIUM", "Dirección": "CV-759, Km. 1, 03570", "Localidad": "LA VILA JOIOSA", "Clasificac": null, "Ofertagas": "Sí", "Restaurant": "Sí", "Desayuno": "No", "Buffet": "No", "WebInfo": "https://www.campingalicanteimperium.com/" }, "geometry": { "type": "Point", "coordinates": [ -0.222860080802629, 38.517372839796167 ] } },
{ "type": "Feature", "properties": { "Id": "139MB", "Nombre": "CAMPING INTERNCIONAL ALMAFRA", "Dirección": "Partida de Cabut, 25, 03503", "Localidad": "L'ALFAÇ DEL PI", "Clasificac": "2*", "Ofertagas": "Sí", "Restaurant": "Sí", "Desayuno": "No", "Buffet": "No", "WebInfo": "https://www.campingalmafra.es/" }, "geometry": { "type": "Point", "coordinates": [ -0.093988992190734, 38.568561229511658 ] } },
{ "type": "Feature", "properties": { "Id": "140MB", "Nombre": "CAMPING RACÓ", "Dirección": "Av. Dr. Severo Ochoa, 35, 03503", "Localidad": "BENIDORM", "Clasificac": null, "Ofertagas": "Sí", "Restaurant": "Sí", "Desayuno": "No", "Buffet": "No", "WebInfo": "http://www.campingraco.com/" }, "geometry": { "type": "Point", "coordinates": [ -0.099978615354558, 38.550033323990732 ] } },
{ "type": "Feature", "properties": { "Id": "141MB", "Nombre": "CAMPING MAGICAL PARADISE", "Dirección": "Partida Paraíso, S/N, 03570", "Localidad": "LA VILA JOIOSA", "Clasificac": null, "Ofertagas": null, "Restaurant": null, "Desayuno": null, "Buffet": null, "WebInfo": "https://camping-magical-paradise.negocio.site/?utm_source=gmb&utm_medium=referral" }, "geometry": { "type": "Point", "coordinates": [ -0.268562632396756, 38.501221858327717 ] } },
{ "type": "Feature", "properties": { "Id": "142MB", "Nombre": "CAMPING ARENA BLANCA", "Dirección": "Av. Dr. Severo Ochoa, 44, 03503", "Localidad": "BENIDORM", "Clasificac": "4*", "Ofertagas": "Sí", "Restaurant": "Sí", "Desayuno": "No", "Buffet": "No", "WebInfo": "https://www.campingarenablanca.com/" }, "geometry": { "type": "Point", "coordinates": [ -0.096782911228496, 38.551044196240682 ] } },
{ "type": "Feature", "properties": { "Id": "143MB", "Nombre": "CAMPING BENISOL", "Dirección": "Av. de la Comunitat Valenciana, 03503", "Localidad": "BENIDORM", "Clasificac": null, "Ofertagas": "Sí", "Restaurant": "Sí", "Desayuno": "No", "Buffet": "No", "WebInfo": "https://www.campingbenisol.com/" }, "geometry": { "type": "Point", "coordinates": [ -0.098550153116322, 38.560160554922611 ] } },
{ "type": "Feature", "properties": { "Id": "145MB", "Nombre": "VILLASOL CAMPING & RESORT", "Dirección": "Avenida Bernat de Sarriá, 13, 03503", "Localidad": "BENIDORM", "Clasificac": "3*", "Ofertagas": "Sí", "Restaurant": "Sí", "Desayuno": "No", "Buffet": "No", "WebInfo": "https://www.camping-villasol.com/" }, "geometry": { "type": "Point", "coordinates": [ -0.100800950489616, 38.545557989089652 ] } },
{ "type": "Feature", "properties": { "Id": "146MB", "Nombre": "CAMPING FONTS DE L'ALGAR", "Dirección": "Partida Algar, s/n, 03510", "Localidad": "CALLOSA D'EN SARRIÁ", "Clasificac": null, "Ofertagas": "Sí", "Restaurant": "Sí", "Desayuno": "No", "Buffet": "No", "WebInfo": "https://www.fontsdelalgar.com/" }, "geometry": { "type": "Point", "coordinates": [ -0.093251630613777, 38.654501310997624 ] } },
{ "type": "Feature", "properties": { "Id": "147MB", "Nombre": "CAMPING VILLAMAR", "Dirección": "Ctra. Albir, km. 0,300, 03503", "Localidad": "BENIDORM", "Clasificac": null, "Ofertagas": "Sí", "Restaurant": "Sí", "Desayuno": "No", "Buffet": "No", "WebInfo": "https://www.campingvillamar.com/" }, "geometry": { "type": "Point", "coordinates": [ -0.095855769963638, 38.555264628829555 ] } },
{ "type": "Feature", "properties": { "Id": "148MB", "Nombre": "CAMPING BENIDORM", "Dirección": "Av. Dr. Severo Ochoa, 50, 03503", "Localidad": "BENIDORM", "Clasificac": null, "Ofertagas": "Sí", "Restaurant": "Sí", "Desayuno": "No", "Buffet": "No", "WebInfo": "https://www.campingbenidorm.com/" }, "geometry": { "type": "Point", "coordinates": [ -0.098085984529127, 38.553446014990186 ] } },
{ "type": "Feature", "properties": { "Id": "149MB", "Nombre": "CAMPERPARK COSTA BLANCA SL", "Dirección": "Vía Pista, 79, 03580", "Localidad": "L'ALFAÇ DEL PI", "Clasificac": null, "Ofertagas": "No", "Restaurant": "No", "Desayuno": "No", "Buffet": "No", "WebInfo": "http://camperparkcostablanca.eu/" }, "geometry": { "type": "Point", "coordinates": [ -0.081764469825879, 38.583653900148143 ] } },
{ "type": "Feature", "properties": { "Id": "152MB", "Nombre": "BENITELMO SL - HOTEL DELOIX", "Dirección": "Av. Dr. Severo Ochoa, 34, 03503", "Localidad": "BENIDORM", "Clasificac": "4*", "Ofertagas": "Sí", "Restaurant": "Sí", "Desayuno": null, "Buffet": "Sí", "WebInfo": "https://www.hoteldeloix.com/" }, "geometry": { "type": "Point", "coordinates": [ -0.098849982334691, 38.546716887373087 ] } },
{ "type": "Feature", "properties": { "Id": "153MB", "Nombre": "RoSal B&B Zerca Beds", "Dirección": "Plaça Església, 2, 03570", "Localidad": "LA VILA JOIOSA", "Clasificac": "2*", "Ofertagas": "No", "Restaurant": "No", "Desayuno": "Sí", "Buffet": "Sí", "WebInfo": "http://rosalbandb.com/es/" }, "geometry": { "type": "Point", "coordinates": [ -0.232766922359655, 38.505435397051656 ] } },
{ "type": "Feature", "properties": { "Id": "156MB", "Nombre": "HOTEL FINCA FABIOLA", "Dirección": "Ptda. La Tapia, 70, 03509", "Localidad": "FINESTRAT", "Clasificac": "1*", "Ofertagas": "Sí", "Restaurant": "Sí", "Desayuno": "Sí", "Buffet": "No", "WebInfo": "https://fincafabiola.es/" }, "geometry": { "type": "Point", "coordinates": [ -0.174937195486083, 38.570084990968617 ] } },
{ "type": "Feature", "properties": { "Id": "157MB", "Nombre": "GRAN HOTEL BALI", "Dirección": "Calle del Actor Luis Prendes, 4, 03502", "Localidad": "BENIDORM", "Clasificac": "4*", "Ofertagas": "Sí", "Restaurant": "Sí", "Desayuno": "No", "Buffet": "Sí", "WebInfo": "https://www.granhotelbali.com/" }, "geometry": { "type": "Point", "coordinates": [ -0.163705224920647, 38.531486467122008 ] } },
{ "type": "Feature", "properties": { "Id": "158MB", "Nombre": "Asia Gardens Hotel & Thai Spa, a Royal Hideaway Hotel", "Dirección": "Terra Mítica, Rotonda del Fuego, 03502", "Localidad": "BENIDORM", "Clasificac": "5*", "Ofertagas": "Sí", "Restaurant": "Sí", "Desayuno": "Sí", "Buffet": "Sí", "WebInfo": "https://www.asiagardens.es/" }, "geometry": { "type": "Point", "coordinates": [ -0.170827732424529, 38.553732405525089 ] } },
{ "type": "Feature", "properties": { "Id": "159MB", "Nombre": "GRAND LUXOR HOTEL", "Dirección": "Partida del Moralet, s/N, 03502", "Localidad": "BENIDORM", "Clasificac": "4*", "Ofertagas": "Sí", "Restaurant": "Sí", "Desayuno": "Sí", "Buffet": "Sí", "WebInfo": "https://grandluxorhotels.com/" }, "geometry": { "type": "Point", "coordinates": [ -0.157583024394996, 38.557916095585028 ] } },
{ "type": "Feature", "properties": { "Id": "160MB", "Nombre": "Apartamentos Magic Atrium Beach", "Dirección": "Avinguda dels Mariners de la Vila Joiosa, 19, 03570", "Localidad": "LA VILA JOIOSA", "Clasificac": "2*", "Ofertagas": "Sí", "Restaurant": "Sí", "Desayuno": null, "Buffet": "Sí", "WebInfo": "https://www.apartamentosmagicatriumbeach.com/" }, "geometry": { "type": "Point", "coordinates": [ -0.169083795454534, 38.527120943313612 ] } },
{ "type": "Feature", "properties": { "Id": "161MB", "Nombre": "SEANEMA OLD TOWN", "Dirección": "Carrer Arsenal 19, Plantas: 1, 2 y Atico", "Localidad": "LA VILA JOIOSA", "Clasificac": null, "Ofertagas": "No", "Restaurant": "No", "Desayuno": "No", "Buffet": "No", "WebInfo": "https://www.seanema.es/es-es/attractions" }, "geometry": { "type": "Point", "coordinates": [ -0.232254746872579, 38.503540249509143 ] } },
{ "type": "Feature", "properties": { "Id": "162MB", "Nombre": "GRAN HOTEL DELFIN", "Dirección": "Av. Vicente Llorca Alós, 19, 03502", "Localidad": "BENIDORM", "Clasificac": "4*", "Ofertagas": "Sí", "Restaurant": "Sí", "Desayuno": "Sí", "Buffet": "Sí", "WebInfo": "https://www.granhoteldelfin.com/" }, "geometry": { "type": "Point", "coordinates": [ -0.159906967502738, 38.531529469803004 ] } },
{ "type": "Feature", "properties": { "Id": "163MB", "Nombre": "CASA FIGUERETES, Casa Rural", "Dirección": "Carrer Figueretes, 17, 03509", "Localidad": "FINESTRAT", "Clasificac": null, "Ofertagas": "Sí", "Restaurant": "Sí", "Desayuno": "Sí", "Buffet": "Sí", "WebInfo": "http://casafigueretes.es/" }, "geometry": { "type": "Point", "coordinates": [ -0.213195944585949, 38.567489061849344 ] } },
{ "type": "Feature", "properties": { "Id": "164MB", "Nombre": "HOTEL TROPIC RELAX", "Dirección": "Calle Relleu, 3, 03509", "Localidad": "BENIDORM", "Clasificac": "3*", "Ofertagas": "Sí", "Restaurant": "Sí", "Desayuno": "Sí", "Buffet": "Sí", "WebInfo": "https://www.medsur-hoteles.com/" }, "geometry": { "type": "Point", "coordinates": [ -0.168681523209157, 38.530651981910822 ] } },
{ "type": "Feature", "properties": { "Id": "167MB", "Nombre": "HOTEL NADAL", "Dirección": "Avenida Madrid, 41, 03500", "Localidad": "BENIDORM", "Clasificac": "3*", "Ofertagas": "Sí", "Restaurant": "Sí", "Desayuno": "Sí", "Buffet": "Sí", "WebInfo": "https://www.hotelnadalbenidorm.com/" }, "geometry": { "type": "Point", "coordinates": [ -0.107403156674725, 38.531963955698124 ] } },
{ "type": "Feature", "properties": { "Id": "177MB", "Nombre": "HOTEL LLAR LA MORENA", "Dirección": "Carretera Benidorm Km 8", "Localidad": "FINESTRAT", "Clasificac": "3*", "Ofertagas": "Sí", "Restaurant": "Sí", "Desayuno": "No", "Buffet": "Sí", "WebInfo": "http://la-morena.finestrat.hotels-costa-blanca.com/es/" }, "geometry": { "type": "Point", "coordinates": [ -0.206120876044726, 38.569419520986607 ] } },
{ "type": "Feature", "properties": { "Id": "235MB", "Nombre": "VILLA MORENA HOTEL RESTAURANTE EVENTOS", "Dirección": "CTRA DE BENIDORM KM8, 03509", "Localidad": "FINESTRAT", "Clasificac": "3*", "Ofertagas": "Sí", "Restaurant": "Sí", "Desayuno": "No", "Buffet": "Sí", "WebInfo": "https://es.villamorena.es/" }, "geometry": { "type": "Point", "coordinates": [ -0.066985979121031, 38.574500050988 ] } },
{ "type": "Feature", "properties": { "Id": "236MB", "Nombre": "GASTRO GROUP HOTEL", "Dirección": "Boulevard dels, Bulevard dels Musics, 21, 03581", "Localidad": "L'ALBIR", "Clasificac": null, "Ofertagas": "Sí", "Restaurant": "Sí", "Desayuno": "No", "Buffet": "No", "WebInfo": "https://www.gastrogrouphotel.com/" }, "geometry": { "type": "Point", "coordinates": [ -0.137595702602377, 38.544599139354936 ] } },
{ "type": "Feature", "properties": { "Id": "237MB", "Nombre": "THE LEVEL AT MELÍA VILLAITANA", "Dirección": "Avenida Eduardo Alcalde Zaplana, 7, 03502", "Localidad": "BENIDORM", "Clasificac": "5*", "Ofertagas": "Sí", "Restaurant": "Sí", "Desayuno": "Sí", "Buffet": "Sí", "WebInfo": "https://www.melia.com/es/hoteles/espana/alicante/the-level-at-melia-villaitana/index.htm" }, "geometry": { "type": "Point", "coordinates": [ -0.147279296220229, 38.558494137289841 ] } },
{ "type": "Feature", "properties": { "Id": "238MB", "Nombre": "FINCA AMADORIO", "Dirección": "Partida Riguera, 5, 03578", "Localidad": "RELLEU", "Clasificac": null, "Ofertagas": "Sí", "Restaurant": "Sí", "Desayuno": "Sí", "Buffet": "No", "WebInfo": "https://www.fincaamadorio.com/" }, "geometry": { "type": "Point", "coordinates": [ -0.299186150305597, 38.573587613938308 ] } },
{ "type": "Feature", "properties": { "Id": "239MB", "Nombre": "CAN ELISA SAFARI TENT", "Dirección": "Partida Rafalet, 03518", "Localidad": "TÀRBENA", "Clasificac": null, "Ofertagas": "No", "Restaurant": "No", "Desayuno": "No", "Buffet": "No", "WebInfo": "https://www.canelisa.com/" }, "geometry": { "type": "Point", "coordinates": [ -0.084474899625418, 38.682499802633487 ] } },
{ "type": "Feature", "properties": { "Id": "240MB", "Nombre": "ALOJAMIENTO RURAL EL ALMENDRO Y LA MONTAÑA", "Dirección": null, "Localidad": "TÀRBENA", "Clasificac": null, "Ofertagas": "Sí", "Restaurant": "Sí", "Desayuno": "Sí", "Buffet": "No", "WebInfo": "https://www.hotelelalmendro.es/" }, "geometry": { "type": "Point", "coordinates": [ -0.102316366804027, 38.693250226135532 ] } },
{ "type": "Feature", "properties": { "Id": "242MB", "Nombre": "CAMP EL PLANET APARTHOTEL", "Dirección": "Cami Volador dels Corbs, 38, 03580", "Localidad": "L'ALFAÇ DEL PI", "Clasificac": "1*", "Ofertagas": "No", "Restaurant": "No", "Desayuno": "Sí", "Buffet": "Sí", "WebInfo": "https://www.campelplanet.com/" }, "geometry": { "type": "Point", "coordinates": [ -0.074411255561875, 38.585245019662452 ] } },
{ "type": "Feature", "properties": { "Id": "243MB", "Nombre": "HOTEL NUC SUN RESORT", "Dirección": "Carrer Pagre, 3, 03530", "Localidad": "LA NUCIA", "Clasificac": null, "Ofertagas": "Sí", "Restaurant": "Sí", "Desayuno": "No", "Buffet": "No", "WebInfo": "https://nucsunresort.com/" }, "geometry": { "type": "Point", "coordinates": [ -0.126331691431683, 38.58141503282431 ] } },
{ "type": "Feature", "properties": { "Id": "244MB", "Nombre": "HOTEL ALBIR GARDEN RESORT", "Dirección": "Camí Vell d'Altea, 29, 03581", "Localidad": "L'ALFAÇ DEL PI", "Clasificac": "3*", "Ofertagas": "Sí", "Restaurant": "Sí", "Desayuno": "No", "Buffet": "Sí", "WebInfo": "https://www.albirgardenresort.com/" }, "geometry": { "type": "Point", "coordinates": [ -0.077275486503082, 38.570379087740783 ] } },
{ "type": "Feature", "properties": { "Id": "245MB", "Nombre": "HOTEL PRINCESS GARDEN RESORT", "Dirección": "Carrer Miguel Angel, 2, 03530", "Localidad": "L'ALFAÇ DEL PI", "Clasificac": "1*", "Ofertagas": "Sí", "Restaurant": "Sí", "Desayuno": "No", "Buffet": "No", "WebInfo": "http://www.princess-garden-resort-l-alfas-del-pi.vivehotels.com/" }, "geometry": { "type": "Point", "coordinates": [ -0.09010181309318, 38.59917761489195 ] } },
{ "type": "Feature", "properties": { "Id": "246MB", "Nombre": "HOTEL LA ESTACIÓN", "Dirección": "Passeig dels Tolls, s/n, 03502", "Localidad": "BENIDORM", "Clasificac": "4*", "Ofertagas": "Sí", "Restaurant": "Sí", "Desayuno": "No", "Buffet": "Sí", "WebInfo": "https://www.hotellaestacionbenidorm.com/" }, "geometry": { "type": "Point", "coordinates": [ -0.125589147151482, 38.549953696925058 ] } },
{ "type": "Feature", "properties": { "Id": "247MB", "Nombre": "HOTEL NOGUERA", "Dirección": "Ctra. Nacional 332, Km.154, Av. d'Europa, Nº210, 03581", "Localidad": "L'ALBIR", "Clasificac": "2*", "Ofertagas": "Sí", "Restaurant": "Sí", "Desayuno": "Sí", "Buffet": "Sí", "WebInfo": "https://www.hotelnoguera.es/" }, "geometry": { "type": "Point", "coordinates": [ -0.072198792269201, 38.580090346940807 ] } },
{ "type": "Feature", "properties": { "Id": "248MB", "Nombre": "PENSIÓN EL PIRINEO, ALOJAMIENTO RURAL", "Dirección": "Carrer Sant Antoni, 52, 03517", "Localidad": "CONFRIDES", "Clasificac": null, "Ofertagas": "Sí", "Restaurant": "Sí", "Desayuno": "No", "Buffet": "No", "WebInfo": "http://www.elpirineoconfrides.com/" }, "geometry": { "type": "Point", "coordinates": [ -0.271065669910999, 38.684456442336902 ] } },
{ "type": "Feature", "properties": { "Id": "249MB", "Nombre": "THE ORANGE HOUSE", "Dirección": "De La Foia, 23, 03509", "Localidad": "FINESTRAT", "Clasificac": null, "Ofertagas": "No", "Restaurant": "No", "Desayuno": "No", "Buffet": "No", "WebInfo": "http://theorangehouse.co.uk/" }, "geometry": { "type": "Point", "coordinates": [ -0.212996120624193, 38.562267722722872 ] } },
{ "type": "Feature", "properties": { "Id": "250MB", "Nombre": "CASA RURAL EL MOLINET DEL GOVERNADOR", "Dirección": "Partida Molinet, 16, 03517", "Localidad": "CASTELL DE GUADALEST", "Clasificac": null, "Ofertagas": "No", "Restaurant": "No", "Desayuno": "No", "Buffet": "No", "WebInfo": "https://elmolinet.com/" }, "geometry": { "type": "Point", "coordinates": [ -0.150278335584478, 38.662221217914912 ] } },
{ "type": "Feature", "properties": { "Id": "251MB", "Nombre": "VIVIENDAS RURALES CASA ESCRIVÁ", "Dirección": "Carrer Les Moreres, 03578", "Localidad": "RELLEU", "Clasificac": null, "Ofertagas": "No", "Restaurant": "No", "Desayuno": "No", "Buffet": "No", "WebInfo": "http://www.casaescriva.com/" }, "geometry": { "type": "Point", "coordinates": [ -0.312305923586799, 38.587395481965473 ] } },
{ "type": "Feature", "properties": { "Id": "252MB", "Nombre": "HOSTAL LEÓN DORMIDO", "Dirección": "Carrer Gabriel Miró, 2, 03520", "Localidad": "POLOP", "Clasificac": "1*", "Ofertagas": "Sí", "Restaurant": "Sí", "Desayuno": "No", "Buffet": "No", "WebInfo": "https://www.hostalleondormido.es/" }, "geometry": { "type": "Point", "coordinates": [ -0.132441535290707, 38.622837297843411 ] } },
{ "type": "Feature", "properties": { "Id": "253MB", "Nombre": "CASA RÚSTICA HOTEL RURAL", "Dirección": "C/ Sant Josep, 5, 03509", "Localidad": "FINESTRAT", "Clasificac": "1*", "Ofertagas": "No", "Restaurant": "No", "Desayuno": "No", "Buffet": "No", "WebInfo": "https://casarustica.business.site/" }, "geometry": { "type": "Point", "coordinates": [ -0.210997747813335, 38.567355581200054 ] } },
{ "type": "Feature", "properties": { "Id": "254MB", "Nombre": "APARTHOTEL VIDALBIR", "Dirección": "Plaza de Venus, 7, 03581", "Localidad": "L'ALBIR", "Clasificac": null, "Ofertagas": "Sí", "Restaurant": "Sí", "Desayuno": "No", "Buffet": "Sí", "WebInfo": "https://vidalbir.com/" }, "geometry": { "type": "Point", "coordinates": [ -0.070612035012279, 38.57084303322511 ] } },
{ "type": "Feature", "properties": { "Id": "314MB", "Nombre": "B&B VILLA PICO", "Dirección": "Calle Cirineo, 21, 03579", "Localidad": "SELLA", "Clasificac": null, "Ofertagas": null, "Restaurant": null, "Desayuno": "No", "Buffet": null, "WebInfo": "http://villapico.com/" }, "geometry": { "type": "Point", "coordinates": [ -0.271712518965563, 38.60929514562195 ] } },
{ "type": "Feature", "properties": { "Id": "315MB", "Nombre": "CASA LEÓN B&B", "Dirección": "Ptda Macheve 11 Correos 67, 03518", "Localidad": "BOLULLA", "Clasificac": null, "Ofertagas": null, "Restaurant": null, "Desayuno": "Sí", "Buffet": null, "WebInfo": "http://www.casa-leon.com/" }, "geometry": { "type": "Point", "coordinates": [ -0.105350289831422, 38.66704526008116 ] } },
{ "type": "Feature", "properties": { "Id": "316MB", "Nombre": "HOTEL CAN CAPELLETES XI", "Dirección": "Partida de Capelletes, 2", "Localidad": "BOLULLA", "Clasificac": null, "Ofertagas": null, "Restaurant": "Sí", "Desayuno": null, "Buffet": null, "WebInfo": "https://can-capelletes-xl-guest-house-bolulla.hotelmix.es/" }, "geometry": { "type": "Point", "coordinates": [ -0.113511391705102, 38.674427554401348 ] } },
{ "type": "Feature", "properties": { "Id": "323MB", "Nombre": "HOTEL VILLA LEHMI", "Dirección": "Lugar Buscarro, 1-3, 03518", "Localidad": "TÁRBENA", "Clasificac": "4*", "Ofertagas": "Sí", "Restaurant": "Sí", "Desayuno": "Sí", "Buffet": "Sí", "WebInfo": "http://www.casalehmi.com/es/" }, "geometry": { "type": "Point", "coordinates": [ -0.091351622169683, 38.704257394809204 ] } },
{ "type": "Feature", "properties": { "Id": "324MB", "Nombre": "MAGIC NATURA ANIMAL, WATER PARK & POLYNESIAN LODGE RESORT", "Dirección": "Partida Foia del Verdader, 1, 03502", "Localidad": "BENIDORM", "Clasificac": "4*", "Ofertagas": "Sí", "Restaurant": "Sí", "Desayuno": "Sí", "Buffet": "Sí", "WebInfo": "https://www.magicnatura.com/?utm_source=google&utm_medium=organic&utm_campaign=gmb" }, "geometry": { "type": "Point", "coordinates": [ -0.145875633604458, 38.571055201349928 ] } },
{ "type": "Feature", "properties": { "Id": "327MB", "Nombre": "AKINON RESORT", "Dirección": "Carrer Vall de Ceta, 48, 03530", "Localidad": "LA NUCIA", "Clasificac": "3*", "Ofertagas": "Sí", "Restaurant": "Sí", "Desayuno": null, "Buffet": "Sí", "WebInfo": "https://www.akinonresort.com/" }, "geometry": { "type": "Point", "coordinates": [ -0.119503152633561, 38.584553509541173 ] } },
{ "type": "Feature", "properties": { "Id": "330MB", "Nombre": "HOTEL CENTRO MAR", "Dirección": "C/ Major, 16, 03501", "Localidad": "BENIDORM", "Clasificac": "3*", "Ofertagas": "Sí", "Restaurant": "Sí", "Desayuno": "Sí", "Buffet": "Sí", "WebInfo": "https://www.hotelcentromar.com/" }, "geometry": { "type": "Point", "coordinates": [ -0.13078732527913, 38.53492730609446 ] } },
{ "type": "Feature", "properties": { "Id": "334MB", "Nombre": "GRAN H LA MARINA HOTEL", "Dirección": "Carrer la Mar, 100, 03590", "Localidad": "ALTEA", "Clasificac": null, "Ofertagas": "Sí", "Restaurant": "Sí", "Desayuno": "No", "Buffet": "No", "WebInfo": "https://www.granhlamarina.com/" }, "geometry": { "type": "Point", "coordinates": [ -0.051898810698443, 38.595986339581025 ] } },
{ "type": "Feature", "properties": { "Id": "335MB", "Nombre": "CASA RURAL RAVALET 21", "Dirección": "Carrer del Ravalet, 21, 03520", "Localidad": "POLOP", "Clasificac": null, "Ofertagas": "No", "Restaurant": "No", "Desayuno": "No", "Buffet": "No", "WebInfo": "https://ravalet21.com/" }, "geometry": { "type": "Point", "coordinates": [ -0.126053910243962, 38.621743469778004 ] } },
{ "type": "Feature", "properties": { "Id": "350MB", "Nombre": "HOTEL LEVANTE CLUB & SPA", "Dirección": "Av. Dr. Severo Ochoa, 3, 03503", "Localidad": "BENIDORM", "Clasificac": "4*", "Ofertagas": "Sí", "Restaurant": "Sí", "Desayuno": "No", "Buffet": "Sí", "WebInfo": "https://www.hotellevanteclub.com/" }, "geometry": { "type": "Point", "coordinates": [ -0.104174574411872, 38.541821537353286 ] } },
{ "type": "Feature", "properties": { "Id": "352MB", "Nombre": "HOTEL VILLA DEL MAR", "Dirección": "Av. de la Armada Española, 1, 03500", "Localidad": "BENIDORM", "Clasificac": "4*", "Ofertagas": "Sí", "Restaurant": "Sí", "Desayuno": "Sí", "Buffet": "Sí", "WebInfo": "https://www.hotelvilladelmar.com.es/" }, "geometry": { "type": "Point", "coordinates": [ -0.138482933060598, 38.537269067054694 ] } },
{ "type": "Feature", "properties": { "Id": "353MB", "Nombre": "HOTEL H10 PORTO PONIENTE", "Dirección": "Calle San Pedro, 24, 03501", "Localidad": "BENIDORM", "Clasificac": "4*", "Ofertagas": "Sí", "Restaurant": "Sí", "Desayuno": "Sí", "Buffet": "Sí", "WebInfo": "https://www.h10hotels.com/" }, "geometry": { "type": "Point", "coordinates": [ -0.135178603978601, 38.537287302695745 ] } },
{ "type": "Feature", "properties": { "Id": "354MB", "Nombre": "HOTEL POSEIDON RESORT", "Dirección": "Calle del Esperanto, 9, 03503", "Localidad": "BENIDORM", "Clasificac": "3*", "Ofertagas": "Sí", "Restaurant": "Sí", "Desayuno": "No", "Buffet": "Sí", "WebInfo": "https://www.poseidon-resort.com/" }, "geometry": { "type": "Point", "coordinates": [ -0.124503128794158, 38.538917392699375 ] } },
{ "type": "Feature", "properties": { "Id": "355MB", "Nombre": "HOTEL MELIA BENIDORM", "Dirección": "Av. Dr. Severo Ochoa, 1, 03503", "Localidad": "BENIDORM", "Clasificac": "4*", "Ofertagas": "Sí", "Restaurant": "Sí", "Desayuno": "Sí", "Buffet": "Sí", "WebInfo": "https://www.melia.com/es/hoteles/espana/benidorm/melia-benidorm/index.htm" }, "geometry": { "type": "Point", "coordinates": [ -0.10505170107616, 38.540545882625111 ] } },
{ "type": "Feature", "properties": { "Id": "357MB", "Nombre": "APARTHOTEL BELROY", "Dirección": "Av. del Mediterráneo, 13, 03503", "Localidad": "BENIDORM", "Clasificac": "4*", "Ofertagas": "Sí", "Restaurant": "Sí", "Desayuno": "No", "Buffet": "Sí", "WebInfo": "https://www.belroy.es/" }, "geometry": { "type": "Point", "coordinates": [ -0.120828267374498, 38.537295392621488 ] } },