{
"type": "FeatureCollection",
"name": "Cafeterias",
"crs": { "type": "name", "properties": { "name": "urn:ogc:def:crs:OGC:1.3:CRS84" } },
"features": [
{ "type": "Feature", "properties": { "fid": 1, "Name": "43SOLETE", "Nombre": "Pastisseria Ópalo", "Categoría": "Cafeterias y pastelerías", "Dirección": "Plaça de Florida-la Vinya, 4", "Municipio": "Alicante/Alacant", "Web_Info": "https://www.facebook.com/pasteleriaopalo/", "Distinción": "Solete" }, "geometry": { "type": "Point", "coordinates": [ -0.508641234212332, 38.342627404110168, 0.0 ] } },
{ "type": "Feature", "properties": { "fid": 2, "Name": "101SOLETE", "Nombre": "De Sabors", "Categoría": "Cafeterias y pastelerías", "Dirección": "Carrer Sant Miguel, 4", "Municipio": "Altea", "Web_Info": "http://www.desabors.com/", "Distinción": "Solete" }, "geometry": { "type": "Point", "coordinates": [ -0.052217444888976, 38.598859333569379, 0.0 ] } },
{ "type": "Feature", "properties": { "fid": 3, "Name": "99SOLETE", "Nombre": "Dalua", "Categoría": "Cafeterias y pastelerías", "Dirección": "Carrer Poeta Miguel Hernandez, 67", "Municipio": "Elx", "Web_Info": "https://a-dalua.com/", "Distinción": "Solete" }, "geometry": { "type": "Point", "coordinates": [ -0.707432611751631, 38.264425507797498, 0.0 ] } },
{ "type": "Feature", "properties": { "fid": 4, "Name": "97SOLETE", "Nombre": "D-Origen Coffee Roasters", "Categoría": "Cafeterias y pastelerías", "Dirección": "Av. de Oscar Esplà, 8", "Municipio": "L'Albir", "Web_Info": "https://www.dorigencoffee.es/", "Distinción": "Solete" }, "geometry": { "type": "Point", "coordinates": [ -0.065813256680912, 38.574551717745678, 0.0 ] } },
{ "type": "Feature", "properties": { "fid": 5, "Name": "87SOLETE", "Nombre": "Casa Mauro Torres", "Categoría": "Cafeterias y pastelerías", "Dirección": "Calle Colón 41", "Municipio": "Segorbe", "Web_Info": "https://www.facebook.com/CasaMauroTorres/", "Distinción": "Solete" }, "geometry": { "type": "Point", "coordinates": [ -0.488997125153665, 39.851970373518483, 0.0 ] } },
{ "type": "Feature", "properties": { "fid": 7, "Name": "39SOLETE", "Nombre": "Los Ángeles", "Categoría": "Cafeterias y pastelerías", "Dirección": "Carrer d'Antoni Joan, 18", "Municipio": "València", "Web_Info": null, "Distinción": "Solete" }, "geometry": { "type": "Point", "coordinates": [ -0.33248584190292, 39.472396669491133, 0.0 ] } },
{ "type": "Feature", "properties": { "fid": 11111, "Name": "11111", "Nombre": "Damasol", "Categoría": null, "Dirección": "Plaça de la Fruita, 15", "Municipio": "Elx/Elche", "Web_Info": null, "Distinción": null }, "geometry": { "type": "Point", "coordinates": [ -0.697865535374821, 38.26605467308395, 0.0 ] } },
{ "type": "Feature", "properties": { "fid": 9, "Name": "94SOLETE", "Nombre": "Chola&Cacao", "Categoría": "Cafeterias y pastelerías", "Dirección": "Ctra. del Cap de la Nau Pla, 120", "Municipio": "Xàbia", "Web_Info": "https://cholagastro.com/", "Distinción": "Solete" }, "geometry": { "type": "Point", "coordinates": [ 0.181806387355048, 38.793937150228842, 0.0 ] } },
{ "type": "Feature", "properties": { "fid": 10, "Name": "104SOLETE", "Nombre": "Dulces Campos", "Categoría": "Cafeterias y pastelerías", "Dirección": "Plaza Andrés Estelles, 3", "Municipio": "Xátiva", "Web_Info": "https://www.dulcescampos.com/", "Distinción": "Solete" }, "geometry": { "type": "Point", "coordinates": [ -0.529760653002512, 38.987813472385348, 0.0 ] } },
{ "type": "Feature", "properties": { "fid": 11, "Name": "132SOLETE", "Nombre": "Horchatería Vida", "Categoría": "Cafeterias y pastelerías", "Dirección": "Partida de Saboia, 6", "Municipio": "Alboraia", "Web_Info": "https://www.facebook.com/horchateriavida", "Distinción": "Solete" }, "geometry": { "type": "Point", "coordinates": [ -0.347163458074641, 39.50641631705907, 0.0 ] } },
{ "type": "Feature", "properties": { "fid": 12, "Name": "133SOLETE", "Nombre": "La Corretgera", "Categoría": "Cafeterias y pastelerías", "Dirección": "Carrer Albéniz, 21", "Municipio": "Benicàssim", "Web_Info": "https://lacorretgera.glideapp.io/", "Distinción": "Solete" }, "geometry": { "type": "Point", "coordinates": [ 0.060840974894494, 40.05130023517588, 0.0 ] } },
{ "type": "Feature", "properties": { "fid": 13, "Name": "134SOLETE", "Nombre": "La Galeta Daurada", "Categoría": "Cafeterias y pastelerías", "Dirección": "Carrer Cavallers, 36, 40", "Municipio": "Castelló de la Plana", "Web_Info": "https://es-es.facebook.com/lagaletadaurada/", "Distinción": "Solete" }, "geometry": { "type": "Point", "coordinates": [ -0.035563674518609, 39.987881269183063, 0.0 ] } },
{ "type": "Feature", "properties": { "fid": 14, "Name": "135SOLETE", "Nombre": "Madness Coffee", "Categoría": "Cafeterias y pastelerías", "Dirección": "Calle San Nicolás, nº4, Bajo", "Municipio": "Alicante/Alacant", "Web_Info": "https://madnesscoffee.com/", "Distinción": "Solete" }, "geometry": { "type": "Point", "coordinates": [ -0.482025741341379, 38.345392415947778, 0.0 ] } },
{ "type": "Feature", "properties": { "fid": 15, "Name": "136SOLETE", "Nombre": "Los Picos Café", "Categoría": "Cafeterias y pastelerías", "Dirección": "Plaça de Manuel Granero, 20", "Municipio": "València", "Web_Info": "https://es-es.facebook.com/lospicoscafe/", "Distinción": "Solete" }, "geometry": { "type": "Point", "coordinates": [ -0.375267820950534, 39.459236035336659, 0.0 ] } },
{ "type": "Feature", "properties": { "fid": 16, "Name": "137SOLETE", "Nombre": "Pastelería Raúl Asencio", "Categoría": "Cafeterias y pastelerías", "Dirección": "Parque Dr. Calatayud, 18", "Municipio": "Aspe", "Web_Info": "https://raulasencio.es/", "Distinción": "Solete" }, "geometry": { "type": "Point", "coordinates": [ -0.766433732157878, 38.346634394426367, 0.0 ] } },
{ "type": "Feature", "properties": { "fid": 17, "Name": "138SOLETE", "Nombre": "Plant Shack", "Categoría": "Cafeterias y pastelerías", "Dirección": "Costera Pont del Montcau, 6", "Municipio": "Altea", "Web_Info": "https://www.plantshackaltea.com/", "Distinción": "Solete" }, "geometry": { "type": "Point", "coordinates": [ -0.048611297430605, 38.600290937760597, 0.0 ] } },
{ "type": "Feature", "properties": { "fid": 18, "Name": "161SOLETE", "Nombre": "Pieri", "Categoría": "Cafeterias y pastelerías", "Dirección": "Avinguda del Papa Luna, 12", "Municipio": "Peníscola", "Web_Info": "https://es-es.facebook.com/people/Gelateria-PIERI/100054248481663/", "Distinción": "Solete" }, "geometry": { "type": "Point", "coordinates": [ 0.403276394928913, 40.367197774480992, 0.0 ] } },
{ "type": "Feature", "properties": { "fid": 19, "Name": "243SOLETE", "Nombre": "Confitería Castell", "Categoría": "Cafeterias y pastelerías", "Dirección": "Cami dels Magros, 9", "Municipio": "Elx", "Web_Info": "https://www.facebook.com/confitercastell/?locale=es_ES", "Distinción": "Solete" }, "geometry": { "type": "Point", "coordinates": [ -0.703959100124329, 38.271140699400519, 0.0 ] } },
{ "type": "Feature", "properties": { "fid": 20, "Name": "244SOLETE", "Nombre": "Hermanas Martínez", "Categoría": "Cafeterias y pastelerías", "Dirección": "Carrer del Cid, 20", "Municipio": "Alicante/Alacant", "Web_Info": "https://hermanasmartinez.com/", "Distinción": "Solete" }, "geometry": { "type": "Point", "coordinates": [ -0.486910599956275, 38.343251900206212, 0.0 ] } },
{ "type": "Feature", "properties": { "fid": 21, "Name": "245SOLETE", "Nombre": "Maldita Gloria!", "Categoría": "Cafeterias y pastelerías", "Dirección": "C. Poeta Quintana, 28", "Municipio": "Alicante/Alacant", "Web_Info": "https://www.instagram.com/malditagloriacafe/?hl=es", "Distinción": "Solete" }, "geometry": { "type": "Point", "coordinates": [ -0.4882759000193, 38.348161899864728, 0.0 ] } },
{ "type": "Feature", "properties": { "fid": 22, "Name": "246SOLETE", "Nombre": "Sip and Wonder Coffee Shop", "Categoría": "Cafeterias y pastelerías", "Dirección": "Carrer Poeta Campos Vasallo, 8", "Municipio": "Alicante/Alacant", "Web_Info": "https://www.sipandwonder.com/", "Distinción": "Solete" }, "geometry": { "type": "Point", "coordinates": [ -0.487486800055539, 38.347671699753498, 0.0 ] } },
{ "type": "Feature", "properties": { "fid": 23, "Name": "247SOLETE", "Nombre": "Pastisseria Dolç", "Categoría": "Cafeterias y pastelerías", "Dirección": "Av. Comunitat Valenciana, 3", "Municipio": "Alicante/Alacant", "Web_Info": "https://www.instagram.com/pastisseria_dolc/?hl=es", "Distinción": "Solete" }, "geometry": { "type": "Point", "coordinates": [ -0.049057431641454, 38.602907882007578, 0.0 ] } },
{ "type": "Feature", "properties": { "fid": 2222, "Name": "22223", "Nombre": "Berguna Gluten Free", "Categoría": null, "Dirección": "C/ de Moratín, 13", "Municipio": "València", "Web_Info": "http://bergunaglutenfree.com/", "Distinción": null }, "geometry": { "type": "Point", "coordinates": [ -0.375722580610498, 39.470944871182489, 0.0 ] } },
{ "type": "Feature", "properties": { "fid": 25, "Name": "249SOLETE", "Nombre": "Sirope", "Categoría": "Cafeterias y pastelerías", "Dirección": "Carrer d'Alloza, 14", "Municipio": "Castelló de la Plana", "Web_Info": "https://www.instagram.com/siropebrunch/?hl=es", "Distinción": "Solete" }, "geometry": { "type": "Point", "coordinates": [ -0.039722199962139, 39.98527780007948, 0.0 ] } },
{ "type": "Feature", "properties": { "fid": 26, "Name": "250SOLETE", "Nombre": "La Bicicleta Café", "Categoría": "Cafeterias y pastelerías", "Dirección": "Enseñanza, 13", "Municipio": "Castelló de la Plana", "Web_Info": "https://www.facebook.com/labicicletacafecastellon/?locale=es_ES", "Distinción": "Solete" }, "geometry": { "type": "Point", "coordinates": [ -0.035403300079212, 39.987581800639767, 0.0 ] } },
{ "type": "Feature", "properties": { "fid": 33333, "Name": "33333", "Nombre": "Blanch", "Categoría": null, "Dirección": "Carrer de Catalunya, 35", "Municipio": "Castelló de la Plana", "Web_Info": null, "Distinción": null }, "geometry": { "type": "Point", "coordinates": [ -0.041512040129277, 39.989624920135007, 0.0 ] } },
{ "type": "Feature", "properties": { "fid": 44444, "Name": "44444", "Nombre": "Ramiro", "Categoría": null, "Dirección": "Av. Beniopa, 32", "Municipio": "Gandía", "Web_Info": null, "Distinción": null }, "geometry": { "type": "Point", "coordinates": [ -0.185919096063663, 38.969916671436529, 0.0 ] } }
]
}
