{
"type": "FeatureCollection",
"name": "Chufa",
"crs": { "type": "name", "properties": { "name": "urn:ogc:def:crs:OGC:1.3:CRS84" } },
"features": [
{ "type": "Feature", "properties": { "Name": "29", "Nombre": "Bar-Horchatería El Tendre", "Dirección": "Avda. de la Paz, 39", "Municipio": "Riba-roja de Túria", "Web_Info": "https://horchateria-el-tendre.business.site/", "Tipo_de_em": "Elaboradores de Horchata de Chufa de Valencia Natural (No Envasadores)" }, "geometry": { "type": "Point", "coordinates": [ -0.575158598999963, 39.547231150000073, 0.0 ] } },
{ "type": "Feature", "properties": { "Name": "31", "Nombre": "Carroxata", "Dirección": "Partida del Castillo, 44", "Municipio": "Tibi", "Web_Info": "http://www.carroxata.es/", "Tipo_de_em": "Elaboradores de Horchata de Chufa de Valencia Natural (No Envasadores)" }, "geometry": { "type": "Point", "coordinates": [ -0.582928199999969, 38.529063200000053, 0.0 ] } },
{ "type": "Feature", "properties": { "Name": "32", "Nombre": "Delicias de Jijona", "Dirección": "Plaza Constitución 5 (Local 2)", "Municipio": "San Juan de Alicante", "Web_Info": null, "Tipo_de_em": "Elaboradores de Horchata de Chufa de Valencia Natural (No Envasadores)" }, "geometry": { "type": "Point", "coordinates": [ -0.433100105999927, 38.395658296000079, 0.0 ] } },
{ "type": "Feature", "properties": { "Name": "33", "Nombre": "Elbït", "Dirección": "Pardo Gimeno, 77", "Municipio": "Alicante", "Web_Info": "http://www.elbit.es/", "Tipo_de_em": "Elaboradores de Horchata de Chufa de Valencia Natural (No Envasadores)" }, "geometry": { "type": "Point", "coordinates": [ -0.506248399999947, 38.341050900000027, 0.0 ] } },
{ "type": "Feature", "properties": { "Name": "34", "Nombre": "Gelateria i Orxateria La Caseta", "Dirección": "Calle General Pastor, 10", "Municipio": " L´Eliana", "Web_Info": "https://www.facebook.com/lacaseta.heladeria/?locale=es_ES", "Tipo_de_em": "Elaboradores de Horchata de Chufa de Valencia Natural (No Envasadores)" }, "geometry": { "type": "Point", "coordinates": [ -0.530271955999979, 39.565236667000079, 0.0 ] } },
{ "type": "Feature", "properties": { "Name": "35", "Nombre": "Gelateria \"Jijonenca\" Morant i Picó", "Dirección": "Avda de Madrid Nº 32 -Rincón de Loix", "Municipio": "Benidorm", "Web_Info": "https://www.jijonenca.es/", "Tipo_de_em": "Elaboradores de Horchata de Chufa de Valencia Natural (No Envasadores)" }, "geometry": { "type": "Point", "coordinates": [ -0.107703199999946, 38.533381700000064, 0.0 ] } },
{ "type": "Feature", "properties": { "Name": "36", "Nombre": "Heladería Los Artesanos", "Dirección": "Avenida de Niza, 4, local 4", "Municipio": "San Juan de Alicante", "Web_Info": null, "Tipo_de_em": "Elaboradores de Horchata de Chufa de Valencia Natural (No Envasadores)" }, "geometry": { "type": "Point", "coordinates": [ -0.41064047499998, 38.366682114000071, 0.0 ] } },
{ "type": "Feature", "properties": { "Name": "37", "Nombre": "Helados Navia", "Dirección": "Cristobal Colon, 13", "Municipio": "Pilar de la Horadada", "Web_Info": "https://heladosalicante.com/", "Tipo_de_em": "Elaboradores de Horchata de Chufa de Valencia Natural (No Envasadores)" }, "geometry": { "type": "Point", "coordinates": [ -0.791359899999975, 37.865866500000038, 0.0 ] } },
{ "type": "Feature", "properties": { "Name": "38", "Nombre": "Helados y Granizados Alboraya", "Dirección": "Calle Colón 123 Bajo", "Municipio": "La Vila Joiosa", "Web_Info": "https://heladeriaalboraya.es/", "Tipo_de_em": "Elaboradores de Horchata de Chufa de Valencia Natural (No Envasadores)" }, "geometry": { "type": "Point", "coordinates": [ -0.22381, 38.510676700000033, 0.0 ] } },
{ "type": "Feature", "properties": { "Name": "39", "Nombre": "Horchata El Cosechero", "Dirección": "Avda. de la Horchata, 19", "Municipio": "Alboraya", "Web_Info": "www.xufatopia.com", "Tipo_de_em": "Elaboradores de Horchata de Chufa de Valencia Natural (No Envasadores)" }, "geometry": { "type": "Point", "coordinates": [ -0.351731899999947, 39.497349500000041, 0.0 ] } },
{ "type": "Feature", "properties": { "Name": "40", "Nombre": "Horchata Juan's", "Dirección": "Benito Pérez Galdós, 33", "Municipio": "Aldaya", "Web_Info": "https://horchatajuans.com/", "Tipo_de_em": "Elaboradores de Horchata de Chufa de Valencia Natural (No Envasadores)" }, "geometry": { "type": "Point", "coordinates": [ -0.469801324999935, 39.46935613100004, 0.0 ] } },
{ "type": "Feature", "properties": { "Name": "41", "Nombre": "Horchatas Juanjo", "Dirección": "Tradición, 9", "Municipio": "Tavernes Blanques", "Web_Info": "http://www.horchatasjuanjo.com/", "Tipo_de_em": "Elaboradores de Horchata de Chufa de Valencia Natural (No Envasadores)" }, "geometry": { "type": "Point", "coordinates": [ -0.366274899999951, 39.508097600000042, 0.0 ] } },
{ "type": "Feature", "properties": { "Name": "42", "Nombre": "Horchata Subies", "Dirección": "Ctra. de Barcelona,10", "Municipio": "Almàssera", "Web_Info": "http://www.horchatasubies.es", "Tipo_de_em": "Elaboradores de Horchata de Chufa de Valencia Natural (No Envasadores)" }, "geometry": { "type": "Point", "coordinates": [ -0.362772698999947, 39.513615300000026, 0.0 ] } },
{ "type": "Feature", "properties": { "Name": "43", "Nombre": "Horchata y Granizados Domingo Mas", "Dirección": "Polígon Casals Sector-3 Almac, 29-23", "Municipio": "Oliva", "Web_Info": "https://horchatasygranizadosdomingomassl.negocio.site/?utm_source=gmb&utm_medium=referral", "Tipo_de_em": "Elaboradores de Horchata de Chufa de Valencia Natural (No Envasadores)" }, "geometry": { "type": "Point", "coordinates": [ -0.108222099999978, 38.906419400000061, 0.0 ] } },
{ "type": "Feature", "properties": { "Name": "44", "Nombre": "Horchatería Daniel", "Dirección": "Avda. de la Horchata, 41", "Municipio": "Alboraya", "Web_Info": "http://www.horchateria-daniel.es/", "Tipo_de_em": "Elaboradores de Horchata de Chufa de Valencia Natural (No Envasadores)" }, "geometry": { "type": "Point", "coordinates": [ -0.354769599999941, 39.495346300000051, 0.0 ] } },
{ "type": "Feature", "properties": { "Name": "45", "Nombre": "Horchatería Els Sariers", "Dirección": "Sarcet, 6", "Municipio": "Valencia", "Web_Info": "https://www.facebook.com/horchateriaelssariers/?locale=es_ES", "Tipo_de_em": "Elaboradores de Horchata de Chufa de Valencia Natural (No Envasadores)" }, "geometry": { "type": "Point", "coordinates": [ -0.357258000999934, 39.492692200000079, 0.0 ] } },
{ "type": "Feature", "properties": { "Name": "46", "Nombre": "Horchatería Rin", "Dirección": "Emilio Baro, 83 bajo", "Municipio": "Valencia", "Web_Info": "https://horchateriarin.es/", "Tipo_de_em": "Elaboradores de Horchata de Chufa de Valencia Natural (No Envasadores)" }, "geometry": { "type": "Point", "coordinates": [ -0.358801067999934, 39.492283814000075, 0.0 ] } },
{ "type": "Feature", "properties": { "Name": "48", "Nombre": "Horchateros Artesanos SL", "Dirección": "Pol, Ind. Moratell Segorb", "Municipio": "Xixona", "Web_Info": "http://www.horchateros.com/", "Tipo_de_em": "Elaboradores de Horchata de Chufa de Valencia Natural (No Envasadores)" }, "geometry": { "type": "Point", "coordinates": [ -0.508484271999976, 38.52723908300004, 0.0 ] } },
{ "type": "Feature", "properties": { "Name": "49", "Nombre": "Jazum", "Dirección": "Santa Magdalena, 4", "Municipio": "Benicarló", "Web_Info": "http://www.granizadosjazumsl.com/", "Tipo_de_em": "Elaboradores de Horchata de Chufa de Valencia Natural (No Envasadores)" }, "geometry": { "type": "Point", "coordinates": [ 0.416278, 40.421536, 0.0 ] } },
{ "type": "Feature", "properties": { "Name": "47", "Nombre": "Horchatería Toni", "Dirección": "Avenida la Huerta, 1", "Municipio": "Alboraya", "Web_Info": "https://horchateriatoni.com/", "Tipo_de_em": "Elaboradores de Horchata de Chufa de Valencia Natural (No Envasadores)" }, "geometry": { "type": "Point", "coordinates": [ -0.348484199999973, 39.498822100000041, 0.0 ] } },
{ "type": "Feature", "properties": { "Name": "50", "Nombre": "La Ibense Gisbert", "Dirección": "Alisios B243", "Municipio": "Alicante", "Web_Info": "https://heladoslaibensegisbert.es/", "Tipo_de_em": "Elaboradores de Horchata de Chufa de Valencia Natural (No Envasadores)" }, "geometry": { "type": "Point", "coordinates": [ -0.550864076999972, 38.351965696000036, 0.0 ] } },
{ "type": "Feature", "properties": { "Name": "51", "Nombre": "L´Obrador de Bou", "Dirección": "Avda. Mare Nostrum, 7", "Municipio": "Alboraya", "Web_Info": "http://www.horchaterialobrador.com/", "Tipo_de_em": "Elaboradores de Horchata de Chufa de Valencia Natural (No Envasadores)" }, "geometry": { "type": "Point", "coordinates": [ -0.325629100999947, 39.49195300100007, 0.0 ] } },
{ "type": "Feature", "properties": { "Name": "52", "Nombre": "Mon Orxata", "Dirección": "Picapedrers, 10-12", "Municipio": "Alboraya", "Web_Info": "https://monorxata.com/", "Tipo_de_em": "Elaboradores de Horchata de Chufa de Valencia Natural (No Envasadores)" }, "geometry": { "type": "Point", "coordinates": [ -0.337331098999925, 39.499281500000052, 0.0 ] } },
{ "type": "Feature", "properties": { "Name": "53", "Nombre": "Orxata y Granissats Moncho", "Dirección": "Alejandro Fleming, 4", "Municipio": "Oliva", "Web_Info": null, "Tipo_de_em": "Elaboradores de Horchata de Chufa de Valencia Natural (No Envasadores)" }, "geometry": { "type": "Point", "coordinates": [ -0.115010699999971, 38.91804030000003, 0.0 ] } },
{ "type": "Feature", "properties": { "Name": "54", "Nombre": "Orxateria Sol i Mar", "Dirección": "Mendizabal, 23", "Municipio": "València", "Web_Info": "https://www.facebook.com/orxateriasolimar/?locale=es_ES", "Tipo_de_em": "Elaboradores de Horchata de Chufa de Valencia Natural (No Envasadores)" }, "geometry": { "type": "Point", "coordinates": [ -0.328681599999925, 39.483930197000063, 0.0 ] } },
{ "type": "Feature", "properties": { "Name": "55", "Nombre": "Refrescos Blanc i Vert", "Dirección": "Isaac Peral, 1", "Municipio": "València", "Web_Info": null, "Tipo_de_em": "Elaboradores de Horchata de Chufa de Valencia Natural (No Envasadores)" }, "geometry": { "type": "Point", "coordinates": [ -0.338712799999939, 39.461245200000064, 0.0 ] } },
{ "type": "Feature", "properties": { "Name": "56", "Nombre": "Sybarit", "Dirección": "Cuadra Colomer, 12, Nave 1", "Municipio": "Castellón de la Plana", "Web_Info": null, "Tipo_de_em": "Elaboradores de Horchata de Chufa de Valencia Natural (No Envasadores)" }, "geometry": { "type": "Point", "coordinates": [ -0.042073199999948, 40.007969200000048, 0.0 ] } },
{ "type": "Feature", "properties": { "Name": "24", "Nombre": "Orxata Polo", "Dirección": " Polígono Industrial 3, Carrer dels Vimeters, 15", "Municipio": "Alboraya", "Web_Info": "http://orxatapolo.com/", "Tipo_de_em": "Elaboradores y Envasadores Horchata de Chufa de Valencia Esterilizada" }, "geometry": { "type": "Point", "coordinates": [ -0.342580899999973, 39.49908060000007, 0.0 ] } },
{ "type": "Feature", "properties": { "Name": "25", "Nombre": "Costa Concentrados Levantinos", "Dirección": "Avda. Antic Regne de València, 29", "Municipio": "Alcasser", "Web_Info": "http://www.costa.es/", "Tipo_de_em": "Elaboradores y Envasadores Horchata de Chufa de Valencia Esterilizada" }, "geometry": { "type": "Point", "coordinates": [ -0.435563399999978, 39.366824500000064, 0.0 ] } },
{ "type": "Feature", "properties": { "Name": "26", "Nombre": "Horchatas Hisc", "Dirección": "Avda. Padre Carlos Ferris, 113", "Municipio": "Albal", "Web_Info": "http://www.horchatashisc.com/", "Tipo_de_em": "Elaboradores y Envasadores Horchata de Chufa de Valencia Esterilizada" }, "geometry": { "type": "Point", "coordinates": [ -0.407987656999978, 39.391588931000058, 0.0 ] } },
{ "type": "Feature", "properties": { "Name": "27", "Nombre": "Horchata El Cosechero", "Dirección": "Avda. de la Horchata, 19", "Municipio": "Alboraya", "Web_Info": "www.xufatopia.com", "Tipo_de_em": "Elaboradores y Envasadores Horchata de Chufa de Valencia Esterilizada" }, "geometry": { "type": "Point", "coordinates": [ -0.351731899999947, 39.497349500000041, 0.0 ] } },
{ "type": "Feature", "properties": { "Name": "106", "Nombre": "Cervezas Fernández Pons", "Dirección": "Av. de las Jacarandas, 2", "Municipio": "Burjassot", "Web_Info": "https://www.fernandezpons.es/", "Tipo_de_em": "Elaboradores y envasadores de productos alimenticios elaborados con Chufa de Valencia" }, "geometry": { "type": "Point", "coordinates": [ -0.407474499999978, 39.501778100000024, 0.0 ] } },
{ "type": "Feature", "properties": { "Name": "107", "Nombre": "Costa Concentrados Levantinos", "Dirección": "Avda. Antic Regne de València, 29", "Municipio": "Alcasser", "Web_Info": "http://www.costa.es/", "Tipo_de_em": "Elaboradores y envasadores de productos alimenticios elaborados con Chufa de Valencia" }, "geometry": { "type": "Point", "coordinates": [ -0.435563381999941, 39.366824522000059, 0.0 ] } },
{ "type": "Feature", "properties": { "Name": "108", "Nombre": "Mieles Sala-Higón", "Dirección": "Ctra. Silla-Turís Cc.3322, Km 1,7,", "Municipio": "Turís", "Web_Info": "https://www.latiendadelamiel.com/", "Tipo_de_em": "Elaboradores y envasadores de productos alimenticios elaborados con Chufa de Valencia" }, "geometry": { "type": "Point", "coordinates": [ -0.693607889999953, 39.389055800000051, 0.0 ] } },
{ "type": "Feature", "properties": { "Name": "57", "Nombre": "AV-52", "Dirección": "Avenida San Onofre, 50", "Municipio": "Quart de Poblet", "Web_Info": null, "Tipo_de_em": "Expendedores" }, "geometry": { "type": "Point", "coordinates": [ -0.448387378999939, 39.482595156000059, 0.0 ] } },
{ "type": "Feature", "properties": { "Name": "58", "Nombre": "Bar-Horchatería El Tendre", "Dirección": "Avda. de la Paz, 39", "Municipio": "Riba-roja de Túria", "Web_Info": "https://horchateria-el-tendre.business.site/", "Tipo_de_em": "Expendedores" }, "geometry": { "type": "Point", "coordinates": [ -0.574938668999948, 39.547002931000065, 0.0 ] } },
{ "type": "Feature", "properties": { "Name": "59", "Nombre": "Bar Pensionistas Almassera", "Dirección": "Plaza Major, 1", "Municipio": "Almassera", "Web_Info": null, "Tipo_de_em": "Expendedores" }, "geometry": { "type": "Point", "coordinates": [ -0.359160569999972, 39.512266344000068, 0.0 ] } },
{ "type": "Feature", "properties": { "Name": "60", "Nombre": "Café Ambient Rafael", "Dirección": "Rey Don Jaime, 2", "Municipio": "Rafelbunyol", "Web_Info": "https://www.facebook.com/cafeambientrafelbunyol/?locale=es_ES", "Tipo_de_em": "Expendedores" }, "geometry": { "type": "Point", "coordinates": [ -0.333763598999951, 39.587890900000048, 0.0 ] } },
{ "type": "Feature", "properties": { "Name": "61", "Nombre": "Cafetería Tropical", "Dirección": "Plaza Maestro Iborra, 2", "Municipio": "Moncada", "Web_Info": null, "Tipo_de_em": "Expendedores" }, "geometry": { "type": "Point", "coordinates": [ -0.395848586999932, 39.545860048000065, 0.0 ] } },
{ "type": "Feature", "properties": { "Name": "62", "Nombre": "Carroxata", "Dirección": "Partida del Castillo, 44", "Municipio": "Tibi", "Web_Info": "http://www.carroxata.es/", "Tipo_de_em": "Expendedores" }, "geometry": { "type": "Point", "coordinates": [ -0.582931550999945, 38.529052006000029, 0.0 ] } },
{ "type": "Feature", "properties": { "Name": "63", "Nombre": "Enrique Cervellara Alguacil", "Dirección": "Mercado de Burjassot, Palco 40", "Municipio": "Burjassot", "Web_Info": null, "Tipo_de_em": "Expendedores" }, "geometry": { "type": "Point", "coordinates": [ -0.411141698999927, 39.503734700000052, 0.0 ] } },
{ "type": "Feature", "properties": { "Name": "64", "Nombre": "Heladería Fabián", "Dirección": "Ciscar, 1", "Municipio": "València", "Web_Info": "https://www.instagram.com/horchateria_fabian/", "Tipo_de_em": "Expendedores" }, "geometry": { "type": "Point", "coordinates": [ -0.36649929999993, 39.467422600000077, 0.0 ] } },
{ "type": "Feature", "properties": { "Name": "65", "Nombre": "Heladería Gran Vía", "Dirección": "Gran Via Marques del Turia, 55", "Municipio": "València", "Web_Info": null, "Tipo_de_em": "Expendedores" }, "geometry": { "type": "Point", "coordinates": [ -0.367959599999949, 39.467611200000078, 0.0 ] } },
{ "type": "Feature", "properties": { "Name": "66", "Nombre": "Heladería Los Artesanos", "Dirección": "Avenida de Niza, 4, local 4", "Municipio": "San Juan de Alicante", "Web_Info": null, "Tipo_de_em": "Expendedores" }, "geometry": { "type": "Point", "coordinates": [ -0.410640499999943, 38.366682100000048, 0.0 ] } },
{ "type": "Feature", "properties": { "Name": "68", "Nombre": "Helados Navia", "Dirección": "Cristobal Colon, 13", "Municipio": "Pilar de la Horadada", "Web_Info": "https://heladosalicante.com/", "Tipo_de_em": "Expendedores" }, "geometry": { "type": "Point", "coordinates": [ -0.791372286999945, 37.865804516000026, 0.0 ] } },
{ "type": "Feature", "properties": { "Name": "67", "Nombre": "Heladería Mati", "Dirección": "Salvador Iborra, 1", "Municipio": "Riba-roja de Túria", "Web_Info": "https://es-es.facebook.com/heladeriamati/", "Tipo_de_em": "Expendedores" }, "geometry": { "type": "Point", "coordinates": [ -0.568988699999977, 39.544303900000045, 0.0 ] } },
{ "type": "Feature", "properties": { "Name": "69", "Nombre": "Heladería Olivares", "Dirección": "Justo Vilar, 17", "Municipio": "València", "Web_Info": null, "Tipo_de_em": "Expendedores" }, "geometry": { "type": "Point", "coordinates": [ -0.331283134999978, 39.467171411000038, 0.0 ] } },
{ "type": "Feature", "properties": { "Name": "70", "Nombre": "Heladería Restaurante La Fama", "Dirección": "Hermanos Antich, 2", "Municipio": "Silla", "Web_Info": "https://m.facebook.com/p/Fama-Restaurante-Helader%C3%ADa-100054244489938/?locale=es_ES", "Tipo_de_em": "Expendedores" }, "geometry": { "type": "Point", "coordinates": [ -0.410201699999959, 39.35745029900005, 0.0 ] } },
{ "type": "Feature", "properties": { "Name": "71", "Nombre": "Helados La Jijonenca", "Dirección": "Escritora Elia Barcelo Estevan, 13", "Municipio": "Elda", "Web_Info": "https://www.facebook.com/jijonencaelda/?locale=es_LA", "Tipo_de_em": "Expendedores" }, "geometry": { "type": "Point", "coordinates": [ -0.792149098999971, 38.477284901000075, 0.0 ] } },
{ "type": "Feature", "properties": { "Name": "72", "Nombre": "Horchata El Cosechero", "Dirección": "Avda. de la Horchata, 19", "Municipio": "Alboraya", "Web_Info": "www.xufatopia.com", "Tipo_de_em": "Expendedores" }, "geometry": { "type": "Point", "coordinates": [ -0.351731899999947, 39.497349500000041, 0.0 ] } },
{ "type": "Feature", "properties": { "Name": "73", "Nombre": "Horchata Subies", "Dirección": "Ctra. de Barcelona,10", "Municipio": "Almàssera", "Web_Info": "http://www.horchatasubies.es", "Tipo_de_em": "Expendedores" }, "geometry": { "type": "Point", "coordinates": [ -0.362772595999957, 39.513615207000043, 0.0 ] } },
{ "type": "Feature", "properties": { "Name": "74", "Nombre": "Horchatería Daniel", "Dirección": "Avda. de la Horchata, 41", "Municipio": "Alboraya", "Web_Info": "http://www.horchateria-daniel.es/", "Tipo_de_em": "Expendedores" }, "geometry": { "type": "Point", "coordinates": [ -0.354769599999941, 39.495346300000051, 0.0 ] } },
{ "type": "Feature", "properties": { "Name": "75", "Nombre": "Horchatería Dolz", "Dirección": "Avenida Blasco Ibañez, 84", "Municipio": "València", "Web_Info": "https://horchateriadolz.com/", "Tipo_de_em": "Expendedores" }, "geometry": { "type": "Point", "coordinates": [ -0.351483104999943, 39.47453176700003, 0.0 ] } },
{ "type": "Feature", "properties": { "Name": "76", "Nombre": "Horchatería El Anden", "Dirección": "Andres Orbiol, 1", "Municipio": "Albal", "Web_Info": "https://www.facebook.com/andenalbal", "Tipo_de_em": "Expendedores" }, "geometry": { "type": "Point", "coordinates": [ -0.408475937999924, 39.396234297000035, 0.0 ] } },
{ "type": "Feature", "properties": { "Name": "77", "Nombre": "Horchatería La Chufera", "Dirección": "Avenida Divino Maestro, 8", "Municipio": "Alboraya", "Web_Info": "https://es-es.facebook.com/laxufera/", "Tipo_de_em": "Expendedores" }, "geometry": { "type": "Point", "coordinates": [ -0.353192599999943, 39.500534501000061, 0.0 ] } },
{ "type": "Feature", "properties": { "Name": "78", "Nombre": "Horno La Torre", "Dirección": "Avenida Real de Madrid, 24", "Municipio": "València", "Web_Info": "https://www.instagram.com/hornolatorre?igshid=YmMyMTA2M2Y%3D", "Tipo_de_em": "Expendedores" }, "geometry": { "type": "Point", "coordinates": [ -0.391006899999979, 39.434916800000053, 0.0 ] } },
{ "type": "Feature", "properties": { "Name": "79", "Nombre": "Jijonenca de Gandía", "Dirección": "Carrer Duc Carles de Borja, 28", "Municipio": "Gandía", "Web_Info": null, "Tipo_de_em": "Expendedores" }, "geometry": { "type": "Point", "coordinates": [ -0.182106399999952, 38.967631999000048, 0.0 ] } },
{ "type": "Feature", "properties": { "Name": "80", "Nombre": "Jijonenca de Xeraco", "Dirección": "Avenida de la Mota, 12", "Municipio": "Xeraco", "Web_Info": "https://www.instagram.com/jijonenca.xeraco/", "Tipo_de_em": "Expendedores" }, "geometry": { "type": "Point", "coordinates": [ -0.196255, 39.050287500000024, 0.0 ] } },
{ "type": "Feature", "properties": { "Name": "81", "Nombre": "La Lechera", "Dirección": "Avda. Profesor Lopez Piñero, 33 bis. C.C. El Saler", "Municipio": "València", "Web_Info": "https://lalecheradenestle.wixsite.com/elsaler/carta-de-cafes-e-infusiones", "Tipo_de_em": "Expendedores" }, "geometry": { "type": "Point", "coordinates": [ -0.354357499999935, 39.453228700000068, 0.0 ] } },
{ "type": "Feature", "properties": { "Name": "82", "Nombre": "LaMare", "Dirección": "Plaza Mayor, 13", "Municipio": "Almassera", "Web_Info": "https://mapcarta.com/es/N5322911221", "Tipo_de_em": "Expendedores" }, "geometry": { "type": "Point", "coordinates": [ -0.356411399999956, 39.512097900000072, 0.0 ] } },
{ "type": "Feature", "properties": { "Name": "83", "Nombre": "La Subasta", "Dirección": "Camí de Montcada, 111", "Municipio": "València", "Web_Info": "https://horchaterialasubasta.com/index.php?s=sec_din/plantillas/responsive_menu_imagen/galeria_img.php&g=gal&gal=3&codsec=&subsec=11&tit=HORARIO", "Tipo_de_em": "Expendedores" }, "geometry": { "type": "Point", "coordinates": [ -0.380925198999932, 39.495748099000025, 0.0 ] } },
{ "type": "Feature", "properties": { "Name": "84", "Nombre": "La Sucrera Pastisseria", "Dirección": "C/ Julio Just, 44", "Municipio": "Alboraya", "Web_Info": "https://carta.menu/restaurants/alboraya/la-sucrera", "Tipo_de_em": "Expendedores" }, "geometry": { "type": "Point", "coordinates": [ -0.353470099999925, 39.497030500000051, 0.0 ] } },
{ "type": "Feature", "properties": { "Name": "85", "Nombre": "Orxatería L'Ermita", "Dirección": "Carrer Ausiàs March, 39", "Municipio": "Meliana", "Web_Info": "https://www.canva.com/design/DAE-CM_PYbI/k9yMQUXwKLMNH0nQytgJ1g/view?website#2:p-gina-1", "Tipo_de_em": "Expendedores" }, "geometry": { "type": "Point", "coordinates": [ -0.351410100999942, 39.53096537600004, 0.0 ] } },
{ "type": "Feature", "properties": { "Name": "86", "Nombre": "L´Obrador de Bou", "Dirección": "Avda. Mare Nostrum, 7", "Municipio": "Alboraya", "Web_Info": "http://www.horchaterialobrador.com/", "Tipo_de_em": "Expendedores" }, "geometry": { "type": "Point", "coordinates": [ -0.325629100999947, 39.49195300100007, 0.0 ] } },
{ "type": "Feature", "properties": { "Name": "87", "Nombre": "Mª Carmen García Munuera", "Dirección": "San Juan de la Cruz, 16-17", "Municipio": "Dehesa de Campoamor", "Web_Info": null, "Tipo_de_em": "Expendedores" }, "geometry": { "type": "Point", "coordinates": [ -0.751442898999926, 37.900178403000041, 0.0 ] } },
{ "type": "Feature", "properties": { "Name": "88", "Nombre": "Mamipan", "Dirección": "Avenida Pio XII, 2. Nuevo Centro. Local 95", "Municipio": "València", "Web_Info": null, "Tipo_de_em": "Expendedores" }, "geometry": { "type": "Point", "coordinates": [ -0.390403099999958, 39.481320900000071, 0.0 ] } },
{ "type": "Feature", "properties": { "Name": "89", "Nombre": "Mon de L'Or 2009, S.L.", "Dirección": "Jaime I, 18", "Municipio": "Xàtiva", "Web_Info": null, "Tipo_de_em": "Expendedores" }, "geometry": { "type": "Point", "coordinates": [ -0.521212299999945, 38.989739200000031, 0.0 ] } },
{ "type": "Feature", "properties": { "Name": "90", "Nombre": "Mon Orxata", "Dirección": "Avda. Profesor Lopez Piñero, 7. Ciudad de las Artes", "Municipio": "València", "Web_Info": "https://monorxata.com/", "Tipo_de_em": "Expendedores" }, "geometry": { "type": "Point", "coordinates": [ -0.353597701999945, 39.454601295000032, 0.0 ] } },
{ "type": "Feature", "properties": { "Name": "91", "Nombre": "Mon Orxata", "Dirección": "Eduardo Primo Yufera, 1. Puerta Oceanografico.", "Municipio": "València", "Web_Info": "https://monorxata.com/", "Tipo_de_em": "Expendedores" }, "geometry": { "type": "Point", "coordinates": [ -0.34698579999997, 39.452942, 0.0 ] } },
{ "type": "Feature", "properties": { "Name": "92", "Nombre": "Mon Orxata", "Dirección": "Plaza Los Pinazos, 3", "Municipio": "València", "Web_Info": "https://monorxata.com/", "Tipo_de_em": "Expendedores" }, "geometry": { "type": "Point", "coordinates": [ -0.37106579999994, 39.470041801000036, 0.0 ] } },
{ "type": "Feature", "properties": { "Name": "93", "Nombre": "Mon Orxata", "Dirección": "Colon, 27. Entrada El Corte Ingles.", "Municipio": "València", "Web_Info": "https://monorxata.com/", "Tipo_de_em": "Expendedores" }, "geometry": { "type": "Point", "coordinates": [ -0.372186641999974, 39.469492241000069, 0.0 ] } },
{ "type": "Feature", "properties": { "Name": "94", "Nombre": "Mon Orxata", "Dirección": "Plaza del Tossal", "Municipio": "València", "Web_Info": "https://monorxata.com/", "Tipo_de_em": "Expendedores" }, "geometry": { "type": "Point", "coordinates": [ -0.380164180999941, 39.476196264000066, 0.0 ] } },
{ "type": "Feature", "properties": { "Name": "95", "Nombre": "Horchatería Els Sariers", "Dirección": "Sarcet, 6", "Municipio": "València", "Web_Info": "https://www.facebook.com/horchateriaelssariers/?locale=es_ES", "Tipo_de_em": "Expendedores" }, "geometry": { "type": "Point", "coordinates": [ -0.357258000999934, 39.492692200000079, 0.0 ] } },
{ "type": "Feature", "properties": { "Name": "96", "Nombre": "Orxatería Enrique", "Dirección": "Xativa, 21", "Municipio": "Montcada", "Web_Info": "https://www.facebook.com/enriqueorxateria/", "Tipo_de_em": "Expendedores" }, "geometry": { "type": "Point", "coordinates": [ -0.39975069999997, 39.545727399000043, 0.0 ] } },
{ "type": "Feature", "properties": { "Name": "97", "Nombre": "Pa y Dulces Llismor", "Dirección": "San Vicente, 67", "Municipio": "València", "Web_Info": null, "Tipo_de_em": "Expendedores" }, "geometry": { "type": "Point", "coordinates": [ -0.378982132999965, 39.469173012000056, 0.0 ] } },
{ "type": "Feature", "properties": { "Name": "98", "Nombre": "Bioparc", "Dirección": "Pio Baroja, 3", "Municipio": "València", "Web_Info": "https://www.bioparcvalencia.es/", "Tipo_de_em": "Expendedores" }, "geometry": { "type": "Point", "coordinates": [ -0.407610599999941, 39.478025700000046, 0.0 ] } },
{ "type": "Feature", "properties": { "Name": "99", "Nombre": "Horchatería Rin", "Dirección": "Emilio Baro, 83 bajo", "Municipio": "València", "Web_Info": "https://horchateriarin.es/", "Tipo_de_em": "Expendedores" }, "geometry": { "type": "Point", "coordinates": [ -0.358808299999964, 39.49228190000008, 0.0 ] } },
{ "type": "Feature", "properties": { "Name": "100", "Nombre": "Horchatería Santabárbara", "Dirección": "C/ Escultor José Capuz, 11", "Municipio": "València", "Web_Info": null, "Tipo_de_em": "Expendedores" }, "geometry": { "type": "Point", "coordinates": [ -0.362239700999964, 39.461556500000029, 0.0 ] } },
{ "type": "Feature", "properties": { "Name": "101", "Nombre": "Sequer Lo Blanch", "Dirección": "Cami Fondo, 23", "Municipio": "Alboraya", "Web_Info": "https://www.sequerloblanch.com/", "Tipo_de_em": "Expendedores" }, "geometry": { "type": "Point", "coordinates": [ -0.337804799999958, 39.495944500000064, 0.0 ] } },
{ "type": "Feature", "properties": { "Name": "102", "Nombre": "Suc de Lluna Colon", "Dirección": "Jorge Juan, 19. Mercado de Colón.", "Municipio": "València", "Web_Info": "https://sucdelluna.com/", "Tipo_de_em": "Expendedores" }, "geometry": { "type": "Point", "coordinates": [ -0.368724899999961, 39.468981400000075, 0.0 ] } },
{ "type": "Feature", "properties": { "Name": "103", "Nombre": "Heladería Sukre", "Dirección": "Carrer Beat Jofre, 35", "Municipio": "El Puig de Santa María", "Web_Info": null, "Tipo_de_em": "Expendedores" }, "geometry": { "type": "Point", "coordinates": [ -0.302261499999929, 39.588022900000055, 0.0 ] } },
{ "type": "Feature", "properties": { "Name": "104", "Nombre": "Sybarit", "Dirección": "Cuadra Colomer, 12, Nave 1", "Municipio": "Castellón de la Plana", "Web_Info": null, "Tipo_de_em": "Expendedores" }, "geometry": { "type": "Point", "coordinates": [ -0.042073199999948, 40.007969200000048, 0.0 ] } },
{ "type": "Feature", "properties": { "Name": "105", "Nombre": "Tropicana", "Dirección": "Santa Bárbara, 62", "Municipio": "Benifaió", "Web_Info": "https://www.facebook.com/CafeteriaTropicana/?locale=es_ES", "Tipo_de_em": "Expendedores" }, "geometry": { "type": "Point", "coordinates": [ -0.424686795999946, 39.283032244000026, 0.0 ] } },
{ "type": "Feature", "properties": { "Name": "109", "Nombre": "Jorge Bartual Roig", "Dirección": "Camí de Carpesa, 3", "Municipio": "València", "Web_Info": null, "Tipo_de_em": "Lavadores inscritos" }, "geometry": { "type": "Point", "coordinates": [ -0.383793499999967, 39.505331701000046, 0.0 ] } },
{ "type": "Feature", "properties": { "Name": "110", "Nombre": "La Huertana 1960", "Dirección": "Camí Fondo, 10", "Municipio": "Alboraya", "Web_Info": "http://lahuertana1960.com/", "Tipo_de_em": "Lavadores inscritos" }, "geometry": { "type": "Point", "coordinates": [ -0.343645799999933, 39.497327099000074, 0.0 ] } },
{ "type": "Feature", "properties": { "Name": "111", "Nombre": "Xufes Pastor", "Dirección": "Partida Masamarda, 13", "Municipio": "Alboraya", "Web_Info": null, "Tipo_de_em": "Lavadores inscritos" }, "geometry": { "type": "Point", "coordinates": [ -0.337205299999937, 39.512939900000049, 0.0 ] } },
{ "type": "Feature", "properties": { "Name": "21", "Nombre": "Calconut", "Dirección": "Finca M E-2, Pol. Ind. Riodel", "Municipio": "Mutxamel", "Web_Info": "https://www.calconut.com/", "Tipo_de_em": "Reenvasador" }, "geometry": { "type": "Point", "coordinates": [ -0.468939133999925, 38.451595437000037, 0.0 ] } },
{ "type": "Feature", "properties": { "Name": "22", "Nombre": "Envasados de Alimentos Bio y Gourmet", "Dirección": "Moliners, 50", "Municipio": "Algemesi", "Web_Info": "www.tertiuspackfood.com", "Tipo_de_em": "Reenvasador" }, "geometry": { "type": "Point", "coordinates": [ -0.41624570099998, 39.216469400000051, 0.0 ] } },
{ "type": "Feature", "properties": { "Name": "23", "Nombre": "Ferrer Segarra", "Dirección": "Carretera de Simat, S/N", "Municipio": "Xàtiva", "Web_Info": "https://www.ferrersegarra.com/es/", "Tipo_de_em": "Reenvasador" }, "geometry": { "type": "Point", "coordinates": [ -0.504922902999965, 38.99519729900004, 0.0 ] } }
]
}
