{
"type": "FeatureCollection",
"name": "granada1",
"crs": { "type": "name", "properties": { "name": "urn:ogc:def:crs:OGC:1.3:CRS84" } },
"features": [
{ "type": "Feature", "properties": { "fid": 1, "MUNICIPIO": "Elche", "CEN_DS_NOM": "Granadas de Elche S.L.", "LOC_DS_DIR": "P.I. Carrús. C/ Gayanes, nº 16", "LOC_DS_WEB": "https://granavida.com/", "Agroturismo": "-" }, "geometry": { "type": "Point", "coordinates": [ -0.713638370000012, 38.284315290999984 ] } },
{ "type": "Feature", "properties": { "fid": 2, "MUNICIPIO": "Albatera", "CEN_DS_NOM": "Albafruits COOP. V", "LOC_DS_DIR": "Camino Derramador s/n-Apdo. 13 ", "LOC_DS_WEB": "albafruits.com", "Agroturismo": null }, "geometry": { "type": "Point", "coordinates": [ -0.869191113999989, 38.186175596 ] } },
{ "type": "Feature", "properties": { "fid": 3, "MUNICIPIO": "Elche", "CEN_DS_NOM": "Frutas y Hortalizas Mas Serrano", "LOC_DS_DIR": "Partida Daimés – Pol. 1, nº 96", "LOC_DS_WEB": "www.masserrano.es", "Agroturismo": "-" }, "geometry": { "type": "Point", "coordinates": [ -0.696114353999974, 38.215832449 ] } },
{ "type": "Feature", "properties": { "fid": 4, "MUNICIPIO": "Elche", "CEN_DS_NOM": "Hermanos Fuentes", "LOC_DS_DIR": "Partida Algorós – pol. 2, 118", "LOC_DS_WEB": "hermanosfuentes.com", "Agroturismo": "-" }, "geometry": { "type": "Point", "coordinates": [ -0.718622428, 38.224529798 ] } },
{ "type": "Feature", "properties": { "fid": 5, "MUNICIPIO": "Elche", "CEN_DS_NOM": "Marfruit, Frutas y Hortalizas S.L.", "LOC_DS_DIR": "Camino Manzanilla – pol. 2, 196 ", "LOC_DS_WEB": "www.marfruit.es", "Agroturismo": "-" }, "geometry": { "type": "Point", "coordinates": [ -0.651682575, 38.142163128 ] } },
{ "type": "Feature", "properties": { "fid": 6, "MUNICIPIO": "Orihuela", "CEN_DS_NOM": "OLÉ! S.A.T. 9890", "LOC_DS_DIR": "C/ Mayor, 140", "LOC_DS_WEB": "www.ole-fruit.com", "Agroturismo": null }, "geometry": { "type": "Point", "coordinates": [ -0.857860605999974, 38.0899685 ] } },
{ "type": "Feature", "properties": { "fid": 7, "MUNICIPIO": "Elche", "CEN_DS_NOM": "AGROD’ELX, S. Coop.", "LOC_DS_DIR": "Partida La Hoya Polígono 1 nº 30", "LOC_DS_WEB": null, "Agroturismo": null }, "geometry": { "type": "Point", "coordinates": [ -0.680931456999986, 38.217518446999975 ] } },
{ "type": "Feature", "properties": { "fid": 8, "MUNICIPIO": "Elche", "CEN_DS_NOM": "Andrés Antón Esclapez", "LOC_DS_DIR": "Partida La Hoya – pol. 3, 155 ", "LOC_DS_WEB": "www.andresanton.es", "Agroturismo": "-" }, "geometry": { "type": "Point", "coordinates": [ -0.667137256999979, 38.200300380999977 ] } },
{ "type": "Feature", "properties": { "fid": 9, "MUNICIPIO": "Elche", "CEN_DS_NOM": "Francisco Oliva S.L.", "LOC_DS_DIR": "Partida Altabix – pol. 2, 116", "LOC_DS_WEB": "www.francisco-oliva.es", "Agroturismo": "-" }, "geometry": { "type": "Point", "coordinates": [ -0.685592653000015, 38.2423832 ] } },
{ "type": "Feature", "properties": { "fid": 10, "MUNICIPIO": "Catral", "CEN_DS_NOM": "Vitalgrana Pomegranate S.L.", "LOC_DS_DIR": "Ampliación polígono industrial de Poniente. Calle Extremadura buzón nº 6.", "LOC_DS_WEB": "www.vitalgrana.com", "Agroturismo": null }, "geometry": { "type": "Point", "coordinates": [ -0.807668837999984, 38.164500853 ] } },
{ "type": "Feature", "properties": { "fid": 11, "MUNICIPIO": "Dolores", "CEN_DS_NOM": "Durá Esclapez, SL", "LOC_DS_DIR": "Polígono Industrial Azarbes, C/ Castellón, 9", "LOC_DS_WEB": "www.duraesclapezsl.com", "Agroturismo": "-" }, "geometry": { "type": "Point", "coordinates": [ -0.739882787999989, 38.143316444 ] } },
{ "type": "Feature", "properties": { "fid": 12, "MUNICIPIO": "Elche", "CEN_DS_NOM": "Cambayas", "LOC_DS_DIR": "Partida Baya Baja – pol. 2, 40", "LOC_DS_WEB": "cambayas.com", "Agroturismo": "-" }, "geometry": { "type": "Point", "coordinates": [ -0.631165375000023, 38.206422262999979 ] } },
{ "type": "Feature", "properties": { "fid": 13, "MUNICIPIO": "Elche", "CEN_DS_NOM": "Frutas Dama de Elche", "LOC_DS_DIR": "Parque Agroalimentario La Alcudia. Calle Santuario de la Luz, nº 7", "LOC_DS_WEB": "www.granadasdamadeelche.com", "Agroturismo": "-" }, "geometry": { "type": "Point", "coordinates": [ -0.683619705000012, 38.243232854999974 ] } },
{ "type": "Feature", "properties": { "fid": 14, "MUNICIPIO": "Elche", "CEN_DS_NOM": "Consejo Regulador de la DOP Granada Mollar de Elche", "LOC_DS_DIR": "Crtra. Elche a Dolores, km 1 (Oficinas OCAPA)", "LOC_DS_WEB": "www.granadaselche.com", "Agroturismo": null }, "geometry": { "type": "Point", "coordinates": [ -0.697738234999974, 38.247530944 ] } },
{ "type": "Feature", "properties": { "fid": 15, "MUNICIPIO": "Elx", "CEN_DS_NOM": "Alcudia Export Fruit", "LOC_DS_DIR": "Ptda. Maitino Pol. 2, 1-A", "LOC_DS_WEB": "http://www.alcudiaexportfruit.com/", "Agroturismo": "-" }, "geometry": { "type": "Point", "coordinates": [ -0.6542907766553, 38.261185426833087 ] } },
{ "type": "Feature", "properties": { "fid": 20, "MUNICIPIO": "Almoradí", "CEN_DS_NOM": "Agro-Verduras 2000", "LOC_DS_DIR": "Polígon Era Alta. Nave 3. Zona Autopista", "LOC_DS_WEB": "https://www.agroverduras2000.com/", "Agroturismo": "-" }, "geometry": { "type": "Point", "coordinates": [ -0.782434805329873, 38.119815965916935 ] } },
{ "type": "Feature", "properties": { "fid": 33, "MUNICIPIO": "Las Bayas (Elche)", "CEN_DS_NOM": "Biograna", "LOC_DS_DIR": "AV. Elx, Num 22, Planta E, Iz.\n", "LOC_DS_WEB": "https://biograna.net/index.php/es/presentacion/", "Agroturismo": "-" }, "geometry": { "type": "Point", "coordinates": [ -0.643809996455996, 38.219834501458429 ] } },
{ "type": "Feature", "properties": { "fid": 91, "MUNICIPIO": "Elche", "CEN_DS_NOM": "Mirlo Fruits", "LOC_DS_DIR": "Polígono 1 nº 207, Partida Daimés,", "LOC_DS_WEB": null, "Agroturismo": "-" }, "geometry": { "type": "Point", "coordinates": [ -0.687054208608658, 38.223630940173898 ] } },
{ "type": "Feature", "properties": { "fid": 123, "MUNICIPIO": "Albatera", "CEN_DS_NOM": "Fruitum", "LOC_DS_DIR": "Gabriel Pérez, 4", "LOC_DS_WEB": "https://www.fruitum.es/", "Agroturismo": "-" }, "geometry": { "type": "Point", "coordinates": [ -0.874150182826863, 38.179671869995772 ] } },
{ "type": "Feature", "properties": { "fid": 333, "MUNICIPIO": "Albatera", "CEN_DS_NOM": "Frutas Hebegu", "LOC_DS_DIR": "Carretera N-340 Km 701.700", "LOC_DS_WEB": null, "Agroturismo": "-" }, "geometry": { "type": "Point", "coordinates": [ -0.853082959551535, 38.195657788222249 ] } }
]
}
