{
"type": "FeatureCollection",
"name": "turron1",
"crs": { "type": "name", "properties": { "name": "urn:ogc:def:crs:OGC:1.3:CRS84" } },
"features": [
{ "type": "Feature", "properties": { "fid": 1, "MUNICIPIO": "Jijona", "CEN_DS_NOM": "Turrones Artesanos De Jijona, S. A.", "LOC_DS_DIR": "Políg. Indus. Segorb, S/n", "LOC_DS_WEB": "https://turjisa.com/" }, "geometry": { "type": "Point", "coordinates": [ -0.506748144000028, 38.532504561999986 ] } },
{ "type": "Feature", "properties": { "fid": 2, "MUNICIPIO": "Jijona", "CEN_DS_NOM": "Turrones El Romero, S. A.", "LOC_DS_DIR": "Políg. Indus. Segorb, S/n", "LOC_DS_WEB": "www.turroneselromero.com" }, "geometry": { "type": "Point", "coordinates": [ -0.506748144000028, 38.532504561999986 ] } },
{ "type": "Feature", "properties": { "fid": 3, "MUNICIPIO": "Jijona", "CEN_DS_NOM": "Turrones Picó, S. A.", "LOC_DS_DIR": "Ctra. Busot Km. 1", "LOC_DS_WEB": "www.turronpico.com" }, "geometry": { "type": "Point", "coordinates": [ -0.490716157, 38.51885405500002 ] } },
{ "type": "Feature", "properties": { "fid": 4, "MUNICIPIO": "Jijona", "CEN_DS_NOM": "Victoriano Candela Y Cª, S. L.", "LOC_DS_DIR": "Vicente Cabrera, 9", "LOC_DS_WEB": "https://www.turronescandela.com/" }, "geometry": { "type": "Point", "coordinates": [ -0.507878382, 38.544953481 ] } },
{ "type": "Feature", "properties": { "fid": 5, "MUNICIPIO": "Jijona", "CEN_DS_NOM": "Coloma García, S. L.", "LOC_DS_DIR": "San Francisco, 12", "LOC_DS_WEB": "www.colomagarcia.com" }, "geometry": { "type": "Point", "coordinates": [ -0.506607137, 38.544556985999975 ] } },
{ "type": "Feature", "properties": { "fid": 6, "MUNICIPIO": "Jijona", "CEN_DS_NOM": "Enrique Garrigós Monerris, S. A.", "LOC_DS_DIR": "Políg. Indus. Segorb, S/n", "LOC_DS_WEB": "www.egarrigos.com" }, "geometry": { "type": "Point", "coordinates": [ -0.506748144000028, 38.532504561999986 ] } },
{ "type": "Feature", "properties": { "fid": 7, "MUNICIPIO": "Jijona", "CEN_DS_NOM": "Herminia Marín Bravo Y Otra, Cb", "LOC_DS_DIR": "Marcel Mira I Carbonell, 18", "LOC_DS_WEB": "https://www.turronesmerche.es/" }, "geometry": { "type": "Point", "coordinates": [ -0.505863648, 38.54150476 ] } },
{ "type": "Feature", "properties": { "fid": 8, "MUNICIPIO": "Jijona", "CEN_DS_NOM": "Jijona, S. A.", "LOC_DS_DIR": "Partida De Alecua, S/n", "LOC_DS_WEB": "www.elabuelo.es" }, "geometry": { "type": "Point", "coordinates": [ -0.483567787000027, 38.562714401999983 ] } },
{ "type": "Feature", "properties": { "fid": 9, "MUNICIPIO": "Jijona", "CEN_DS_NOM": "Mira Y Llorens, S. A.", "LOC_DS_DIR": "Políg. Ind. Espartal, S/n", "LOC_DS_WEB": "www.elartesano.es" }, "geometry": { "type": "Point", "coordinates": [ -0.493608794000011, 38.520763101 ] } },
{ "type": "Feature", "properties": { "fid": 10, "MUNICIPIO": "Jijona", "CEN_DS_NOM": "Primitivo Rovira E Hijos, S. L.", "LOC_DS_DIR": "Avda. Constitución, 15", "LOC_DS_WEB": "www.turronesprimitivo.com" }, "geometry": { "type": "Point", "coordinates": [ -0.507025387999988, 38.540087912999979 ] } },
{ "type": "Feature", "properties": { "fid": 11, "MUNICIPIO": "Jijona", "CEN_DS_NOM": "Sanchis Mira, S. A.", "LOC_DS_DIR": "Políg. Indus. Segorb, S/n", "LOC_DS_WEB": "https://www.antiuxixona.com/" }, "geometry": { "type": "Point", "coordinates": [ -0.506748144000028, 38.532504561999986 ] } },
{ "type": "Feature", "properties": { "fid": 12, "MUNICIPIO": "Jijona", "CEN_DS_NOM": "Turrones Coloma, S. A.", "LOC_DS_DIR": "Ctra. Jijona – Alicante, Km. 3", "LOC_DS_WEB": "www.turron25.com" }, "geometry": { "type": "Point", "coordinates": [ -0.494226325999989, 38.52213684100002 ] } },
{ "type": "Feature", "properties": { "fid": 13, "MUNICIPIO": "Jijona", "CEN_DS_NOM": "Turrones José Garrigós, S. A.", "LOC_DS_DIR": "Ctra. Jijona – Alicante, Km.3", "LOC_DS_WEB": "https://turronesjgarrigos.com/" }, "geometry": { "type": "Point", "coordinates": [ -0.494226325999989, 38.52213684100002 ] } },
{ "type": "Feature", "properties": { "fid": 14, "MUNICIPIO": "Jijona", "CEN_DS_NOM": "Turrones Y Helados Onza De Oro, S. A.", "LOC_DS_DIR": "Políg. Ind. Segorb, S/n", "LOC_DS_WEB": "www.onzaoro.com" }, "geometry": { "type": "Point", "coordinates": [ -0.506748144000028, 38.532504561999986 ] } },
{ "type": "Feature", "properties": { "fid": 16, "MUNICIPIO": "Jijona", "CEN_DS_NOM": "Almendra Y Miel, S. A.", "LOC_DS_DIR": "Políg. Ind. Ciudad Del Turrón, S/n", "LOC_DS_WEB": "www.ellobo.com" }, "geometry": { "type": "Point", "coordinates": [ -0.485487062, 38.517849822000017 ] } },
{ "type": "Feature", "properties": { "fid": 17, "MUNICIPIO": "Jijona", "CEN_DS_NOM": "Elaboraciones Artesanas López Y Espí, C. B.", "LOC_DS_DIR": "Alicante, 19", "LOC_DS_WEB": "www.turronesmanuelpico.com" }, "geometry": { "type": "Point", "coordinates": [ -0.506354201000022, 38.538595964000024 ] } },
{ "type": "Feature", "properties": { "fid": 18, "MUNICIPIO": "Jijona", "CEN_DS_NOM": "Artesanías Jijonencas, SL", "LOC_DS_DIR": "Pol. Ind Ciudad del turrón Parcela A2-3", "LOC_DS_WEB": "https://www.elturrondejijona.com/" }, "geometry": { "type": "Point", "coordinates": [ -0.487307598488149, 38.515595510537203 ] } },
{ "type": "Feature", "properties": { "fid": 19, "MUNICIPIO": "Jijona", "CEN_DS_NOM": "Industrias Jijonencas, S. A.", "LOC_DS_DIR": "Políg. Indus. Espartal, S/n", "LOC_DS_WEB": "https://www.jijonenca.es/" }, "geometry": { "type": "Point", "coordinates": [ -0.493608794000011, 38.520763101 ] } },
{ "type": "Feature", "properties": { "fid": 20, "MUNICIPIO": "Jijona", "CEN_DS_NOM": "Laura Colomina Masiá", "LOC_DS_DIR": "C/ Marcel Mira, 26", "LOC_DS_WEB": "https://lauracolomina.com/" }, "geometry": { "type": "Point", "coordinates": [ -0.505610279786645, 38.541984266070436 ] } },
{ "type": "Feature", "properties": { "fid": 21, "MUNICIPIO": "Jijona", "CEN_DS_NOM": "Pablo Garrigós Ibáñez, S. L.", "LOC_DS_DIR": "Cv 800 – Km. 14,3", "LOC_DS_WEB": "www.pablogarrigos.com" }, "geometry": { "type": "Point", "coordinates": [ -0.487932320000027, 38.515469628 ] } },
{ "type": "Feature", "properties": { "fid": 22, "MUNICIPIO": "Jijona", "CEN_DS_NOM": "Lopetes Artesanos, S.A.", "LOC_DS_DIR": "C/ Alcoy, 56", "LOC_DS_WEB": "https://lopetes.es/" }, "geometry": { "type": "Point", "coordinates": [ -0.505152413495169, 38.540600922862652 ] } },
{ "type": "Feature", "properties": { "fid": 25, "MUNICIPIO": "Jijona", "CEN_DS_NOM": "Manuel Alcaraz Arques", "LOC_DS_DIR": "Polígono Industrial Espartal II. C/Cami de la Torre. Nave 6", "LOC_DS_WEB": "https://turronespepeymercedes.com/" }, "geometry": { "type": "Point", "coordinates": [ -0.487538027928957, 38.517274359575111 ] } },
{ "type": "Feature", "properties": { "fid": 29, "MUNICIPIO": "Jijona", "CEN_DS_NOM": "Pastelería Escoda, S.L.", "LOC_DS_DIR": "C/ San Francisco, 10", "LOC_DS_WEB": "https://escodajijona.com/" }, "geometry": { "type": "Point", "coordinates": [ -0.506496086468194, 38.544212539621057 ] } },
{ "type": "Feature", "properties": { "fid": 35, "MUNICIPIO": "Jijona", "CEN_DS_NOM": "Turrones La Colmena, S.L.", "LOC_DS_DIR": "Pol. Ind Revolta de la Paella CV-800 km.14, Nave 6.", "LOC_DS_WEB": "https://turroneslacolmena.com/" }, "geometry": { "type": "Point", "coordinates": [ -0.497901367585055, 38.525279378763912 ] } },
{ "type": "Feature", "properties": { "fid": 36, "MUNICIPIO": "Jijona", "CEN_DS_NOM": "Turrones y Helados Onza de Oro", "LOC_DS_DIR": "Carrer de Bernat, s/n", "LOC_DS_WEB": "https://www.turronesyheladosonzadeoro.com/es/" }, "geometry": { "type": "Point", "coordinates": [ -0.507817315015167, 38.529038082474955 ] } }
]
}
